BATHRM,HF_BATHRM,HEAT,AC,NUM_UNITS,ROOMS,BEDRM,AYB,YR_RMDL,EYB,STORIES,SALEDATE,PRICE,QUALIFIED,SALE_NUM,GBA,BLDG_NUM,STYLE,STRUCT,GRADE,CNDTN,EXTWALL,ROOF,INTWALL,KITCHENS,FIREPLACES,USECODE,LANDAREA,GIS_LAST_MOD_DTTM,SOURCE,CMPLX_NUM,LIVING_GBA,FULLADDRESS,CITY,STATE,ZIPCODE,NATIONALGRID,LATITUDE,LONGITUDE,ASSESSMENT_NBHD,ASSESSMENT_SUBNBHD,CENSUS_TRACT,CENSUS_BLOCK,WARD,SQUARE,X,Y,QUADRANT
3,1,Forced Air,Y,1.0,8,4,1935.0,2009.0,1969,2.0,2016-08-04 00:00:00,830000.0,Q,2,2448.0,1,2 Story,Single,Good Quality,Good,Brick/Siding,Slate,Hardwood,1.0,2,12,5000,2018-07-22 18:01:43,Residential,,,1509 KALMIA ROAD NW,WASHINGTON,DC,20012.0,18S UJ 23728 17154,38.98564789,-77.03516863,Shepherd Heights,,1600.0,001600 1012,Ward 4,2770.0,-77.03488809179201,38.986165768120046,NW
3,1,Warm Cool,Y,2.0,9,4,1909.0,2007.0,1969,2.0,2013-07-03 00:00:00,670000.0,Q,1,1506.0,1,2 Story,Row Inside,Good Quality,Good,Common Brick,Metal- Sms,Hardwood,2.0,1,24,1310,2018-07-22 18:01:43,Residential,,,1529 A STREET NE,WASHINGTON,DC,20002.0,18S UJ 28060 06519,38.89072733,-76.98250317,Old City 1,039 G Old City 1,8002.0,008002 1012,Ward 6,1070.0,-76.98286411889862,38.89041311273155,NE
1,1,Hot Water Rad,Y,1.0,6,2,1908.0,2011.0,1969,2.0,2011-09-06 00:00:00,639900.0,Q,1,1636.0,1,2 Story,Row Inside,Good Quality,Good,Common Brick,Built Up,Hardwood,1.0,1,11,1312,2018-07-22 18:01:43,Residential,,,1512 E STREET SE,WASHINGTON,DC,20003.0,18S UJ 27988 05664,38.88301913,-76.98312409,Old City 1,039 B Old City 1,6802.0,006802 2003,Ward 6,1075.0,-76.98306836277428,38.883463392260154,SE
1,2,Warm Cool,Y,1.0,7,2,1954.0,2012.0,1974,3.0,2006-07-07 00:00:00,880000.0,Q,1,1820.0,1,3 Story,Row Inside,Above Average,Good,Common Brick,Built Up,Hardwood,1.0,1,11,691,2018-07-22 18:01:43,Residential,,,912 25TH STREET NW,WASHINGTON,DC,20037.0,18S UJ 21925 07800,38.90104113,-77.05353264,Foggy Bottom,,5600.0,005600 1008,Ward 2,16.0,-77.05414830104303,38.901216496416346,NW
1,0,Ht Pump,Y,,4,2,1925.0,1984.0,1925,,2005-09-09 00:00:00,70000.0,U,1,,1,,,,,,,,,0,16,638,2018-07-22 18:01:38,Condominium,2284.0,941.0,,,,20001.0,,38.90649927,-77.01070018,Old City 2,040 A Old City 2,4701.0,,Ward 6,619.0,-77.01070245685614,38.90650672248679,NW
2,0,Ht Pump,Y,,4,1,2000.0,,1900,,2001-06-07 00:00:00,,U,1,,1,,,,,,,,,0,17,159,2018-07-22 18:01:38,Condominium,1313.0,1147.0,,,,20037.0,,38.9047162,-77.04944216,Central-tri 1,,5500.0,,Ward 2,51.0,-77.04944445595534,38.90472365301228,NW
1,0,Ht Pump,Y,,3,1,1954.0,1982.0,1954,,2012-01-31 00:00:00,,U,1,,1,,,,,,,,,0,16,721,2018-07-22 18:01:38,Condominium,2407.0,537.0,,,,20007.0,,38.9202441,-77.0751272,Glover Park,,300.0,,Ward 3,1301.0,-77.07512949882778,38.92025155961024,NW
1,0,Ht Pump,Y,,4,1,1942.0,1982.0,1942,,1993-05-07 00:00:00,167000.0,U,1,,1,,,,,,,,,0,16,1564,2018-07-22 18:01:38,Condominium,1066.0,1175.0,,,,20016.0,,38.93690265,-77.07824168,Cleveland Park,,1002.0,,Ward 3,1798.0,-77.07824397947405,38.93691011131881,NW
3,0,Forced Air,Y,1.0,8,4,1927.0,2009.0,1967,2.0,2015-06-15 00:00:00,779000.0,Q,7,1358.0,1,2 Story,Row End,Above Average,Good,Common Brick,Neopren,Hardwood/Carp,1.0,0,12,1025,2018-07-22 18:01:43,Residential,,,534 13TH STREET NE,WASHINGTON,DC,20002.0,18S UJ 27553 07217,38.89692079,-76.98852164,Old City 1,039 K Old City 1,8001.0,008001 2003,Ward 6,1007.0,-76.98916408385527,38.89688761162385,NE
2,0,Hot Water Rad,N,2.0,5,2,1939.0,,1954,2.0,,,U,1,1260.0,1,2 Story,Row Inside,Average,Good,Common Brick,Built Up,Hardwood,2.0,0,24,1516,2018-07-22 18:01:43,Residential,,,4014 7TH STREET NE,WASHINGTON,DC,20017.0,18S UJ 27033 11985,38.93975795,-76.99571893,Brookland,007 C Brookland,9504.0,009504 1005,Ward 5,3820.0,-76.99517801397671,38.938291809077775,NE
1,1,Warm Cool,Y,1.0,5,3,1950.0,,1950,1.0,2006-08-23 00:00:00,,U,1,1221.0,1,1 Story,Single,Average,Average,Common Brick,Comp Shingle,Hardwood,1.0,1,12,6017,2018-07-22 18:01:43,Residential,,,64 SHERIDAN STREET NE,WASHINGTON,DC,20011.0,18S UJ 26203 14987,38.96662998,-77.00605265,Takoma Park,,9505.0,009505 2005,Ward 4,3724.0,-77.00596218437262,38.96681323563333,NE
1,0,Hot Water Rad,N,1.0,5,2,1928.0,,1957,2.0,2016-12-08 00:00:00,,U,2,1083.0,1,2 Story,Single,Above Average,Average,Stucco,Comp Shingle,Hardwood,1.0,1,12,2650,2018-07-22 18:01:43,Residential,,,3619 24TH STREET NE,WASHINGTON,DC,20018.0,18S UJ 29084 11398,38.93486747,-76.97192227,Woodridge,056 A Woodridge,9400.0,009400 3011,Ward 5,4293.0,-76.97116885395921,38.93461711740298,NE
3,0,Forced Air,Y,,5,2,2008.0,,2008,,2015-10-06 00:00:00,2175000.0,Q,2,,1,,,,,,,,,0,17,254,2018-07-22 18:01:38,Condominium,3159.0,1908.0,,,,20037.0,,38.90470527,-77.04857837,Central-tri 1,,5500.0,,Ward 2,71.0,-77.04858066678214,38.904712723876244,NW
1,0,Hot Water Rad,N,1.0,6,3,1900.0,,1957,2.0,,,U,1,1372.0,1,2 Story,Single,Above Average,Average,Vinyl Siding,Comp Shingle,Wood Floor,1.0,0,12,5291,2018-07-22 18:01:43,Residential,,,2430 IRVING STREET NE,WASHINGTON,DC,20018.0,18S UJ 29157 10788,38.92938856,-76.97092764,Woodridge,056 C Woodridge,11100.0,011100 2007,Ward 5,4289.0,-76.9712968547274,38.93004234021957,NE
2,0,Hot Water Rad,N,1.0,6,3,1917.0,,1957,2.0,,,U,1,1616.0,1,2 Story,Row Inside,Above Average,Good,Common Brick,Metal- Sms,Hardwood,1.0,0,11,2009,2018-07-22 18:01:43,Residential,,,720 OTIS PLACE NW,WASHINGTON,DC,20010.0,18S UJ 24661 11446,38.93442809,-77.02294029999999,Columbia Heights,015 C Columbia Heights,3200.0,003200 2002,Ward 1,3033.0,-77.02263506012666,38.9343323231834,NW
3,1,Hot Water Rad,Y,2.0,9,4,1900.0,2012.0,1969,2.0,2016-07-25 00:00:00,1170000.0,Q,4,1732.0,1,2 Story,Semi-Detached,Good Quality,Good,Common Brick,Metal- Sms,Wood Floor,2.0,1,24,1156,2018-07-22 18:01:43,Residential,,,1011 D STREET SE,WASHINGTON,DC,20003.0,18S UJ 27205 05780,38.88390823,-76.99217862,Capitol Hill,009 B Capitol Hill,6900.0,006900 1009,Ward 6,972.0,-76.99219948115284,38.883637671192545,SE
1,0,Forced Air,Y,,3,1,1909.0,,1909,,,,U,1,,1,,,,,,,,,1,16,324,2018-07-22 18:01:38,Condominium,1189.0,621.0,,,,20009.0,,38.91819289,-77.04305542,Kalorama,029 B Kalorama,4002.0,,Ward 1,2554.0,-77.0430577167459,38.918200343276574,NW
2,0,Forced Air,Y,1.0,5,2,1910.0,2009.0,1964,2.0,2009-05-18 00:00:00,395000.0,Q,1,754.0,1,2 Story,Row Inside,Average,Good,Common Brick,Typical,Hardwood,1.0,0,11,734,2018-07-22 18:01:43,Residential,,,1371 K STREET SE,WASHINGTON,DC,20003.0,18S UJ 27741 05137,38.87822072,-76.98584159,Old City 1,039 D Old City 1,7100.0,007100 1008,Ward 6,1047.0,-76.98698388659052,38.87783633381402,SE
3,1,Hot Water Rad,Y,1.0,7,3,1935.0,1989.0,1967,2.0,2009-10-30 00:00:00,870000.0,Q,1,1590.0,1,2 Story,Semi-Detached,Good Quality,Good,Common Brick,Comp Shingle,Hardwood,1.0,1,13,2464,2018-07-22 18:01:43,Residential,,,2704 CORTLAND PLACE NW,WASHINGTON,DC,20008.0,18S UJ 21709 11158,38.93124304,-77.05689661,Garfield,,502.0,000502 2006,Ward 3,2106.0,-77.05705272575166,38.929612954348286,NW
1,0,Hot Water Rad,N,2.0,8,3,1925.0,,1954,2.0,2003-03-14 00:00:00,325000.0,Q,1,1640.0,1,2 Story,Row Inside,Average,Average,Common Brick,Metal- Sms,Hardwood,2.0,0,11,1800,2018-07-22 18:01:43,Residential,,,4832 KANSAS AVENUE NW,WASHINGTON,DC,20011.0,18S UJ 24900 13114,38.94949687,-77.02060307,Petworth,042 B Petworth,2201.0,002201 1007,Ward 4,3214.0,-77.02125221856639,38.9493477286951,NW
2,0,Forced Air,N,1.0,6,3,1937.0,,1954,2.0,2015-10-22 00:00:00,,U,2,1260.0,1,2 Story,Row Inside,Average,Average,Common Brick,Built Up,Hardwood,1.0,0,11,1487,2018-07-22 18:01:43,Residential,,,1322 HOLBROOK STREET NE,WASHINGTON,DC,20002.0,18S UJ 27984 07898,38.90313599,-76.98372897,Trinidad,052 B Trinidad,8802.0,008802 2001,Ward 5,4062.0,-76.9846425870839,38.90337070255342,NE
2,1,Forced Air,N,,5,3,1895.0,2003.0,1919,,2004-02-05 00:00:00,240000.0,U,1,,1,,,,,,,,,0,16,765,2018-07-22 18:01:38,Condominium,2559.0,1190.0,,,,20001.0,,38.914668765,-77.02496625,Old City 2,040 G Old City 2,4400.0,,Ward 1,362.0,-77.02496853899461,38.91467622332511,NW
1,0,Forced Air,Y,,4,1,2007.0,,2007,,2010-06-15 00:00:00,420000.0,U,1,,1,,,,,,,,,0,17,92,2018-07-22 18:01:38,Condominium,3134.0,855.0,,,,20001.0,,38.90283321,-77.026397325,Central-tri 3,,10100.0,,Ward 2,342.0,-77.0263996137765,38.90284066772405,NW
1,1,Warm Cool,Y,,5,2,1961.0,,1961,,2017-06-01 00:00:00,510000.0,Q,2,,1,,,,,,,,,0,16,1976,2018-07-22 18:01:38,Condominium,2279.0,1344.0,,,,20024.0,,38.88082098,-77.01427073,Southwest Waterfront,,10500.0,,Ward 6,540.0,-77.0142730131491,38.8808284329871,SW
3,1,Forced Air,Y,1.0,7,3,1959.0,2007.0,1978,1.0,2012-03-21 00:00:00,,U,1,2038.0,1,1 Story,Single,Above Average,Average,Common Brick,Comp Shingle,Carpet,1.0,2,12,10625,2018-07-22 18:01:43,Residential,,,1610 TAMARACK STREET NW,WASHINGTON,DC,20012.0,18S UJ 23467 17803,38.99144304,-77.03833981,Colonial Village,,1600.0,001600 4004,Ward 4,2758.0,-77.0388682570968,38.99170339633474,NW
1,0,Hot Water Rad,Y,1.0,6,3,1925.0,,1954,2.0,1995-07-20 00:00:00,75000.0,U,1,973.0,1,2 Story,Single,Average,Average,Wood Siding,Shingle,Hardwood,1.0,1,12,6039,2018-07-22 18:01:43,Residential,,,5928 3RD STREET NW,WASHINGTON,DC,20011.0,18S UJ 25290 14514,38.96218332,-77.01646451,Brightwood,006 E Brightwood,1902.0,001902 1006,Ward 4,3290.0,-77.01721674080731,38.96195485539072,NW
2,0,Forced Air,Y,,4,2,2002.0,,2002,,2012-10-26 00:00:00,679000.0,U,1,,1,,,,,,,,,1,17,198,2018-07-22 18:01:38,Condominium,2538.0,1140.0,,,,20005.0,,38.908131005,-77.02989369,Old City 2,040 C Old City 2,5002.0,,Ward 2,243.0,-77.02989598533358,38.90813845924844,NW
1,0,Forced Air,Y,,3,1,1940.0,,1940,,2006-05-09 00:00:00,223900.0,Q,1,,1,,,,,,,,,0,16,514,2018-07-22 18:01:38,Condominium,1692.0,569.0,,,,20020.0,,38.87239958,-76.97021629,Hillcrest,028 A Hillcrest,7604.0,,Ward 7,5579.0,-76.97021855378176,38.872407028504895,SE
1,1,Warm Cool,Y,1.0,7,3,1975.0,,1977,2.0,2007-08-17 00:00:00,,U,1,1240.0,1,2 Story,Semi-Detached,Above Average,Average,Common Brick,Shake,Wood Floor,1.0,0,13,2577,2018-07-22 18:01:43,Residential,,,2229 RIDGE PLACE SE,WASHINGTON,DC,20020.0,18S UJ 28819 04062,38.86875013,-76.97315165,Randle Heights,043 A Randle Heights,7601.0,007601 2013,Ward 8,5624.0,-76.97349911139288,38.86875079602469,SE
1,0,Hot Water Rad,N,1.0,10,5,1925.0,,1954,2.0,,,U,1,1320.0,1,2 Story,Row Inside,Average,Average,Common Brick,Built Up,Hardwood,1.0,0,11,1700,2018-07-22 18:01:43,Residential,,,4805 ILLINOIS AVENUE NW,WASHINGTON,DC,20011.0,18S UJ 24744 13022,38.9486422,-77.02238238,Petworth,042 B Petworth,2201.0,002201 1008,Ward 4,3146.0,-77.02244642577821,38.94924143046449,NW
3,0,Warm Cool,Y,2.0,9,5,1932.0,2007.0,1992,3.0,1996-12-23 00:00:00,450000.0,Q,1,2244.0,1,3 Story,Row Inside,Superior,Very Good,Common Brick,Built Up,Hardwood,2.0,1,24,1336,2018-07-22 18:01:43,Residential,,,3042 CAMBRIDGE PLACE NW,WASHINGTON,DC,20007.0,18S UJ 21322 08935,38.911143599999996,-77.06078048,Georgetown,025 F Georgetown,100.0,000100 1011,Ward 2,1282.0,-77.0604618591437,38.91176883739783,NW
1,0,Electric Rad,N,,3,1,1942.0,2012.0,1942,,2016-05-09 00:00:00,324900.0,Q,3,,1,,,,,,,,,0,17,480,2018-07-22 18:01:38,Condominium,4065.0,690.0,,,,20007.0,,38.92145037,-77.07914821,Glover Park,,300.0,,Ward 3,1334.0,-77.07915051245098,38.92145782285048,NW
1,0,Gravity Furnac,Y,,4,2,1923.0,,1923,,2014-09-22 00:00:00,300000.0,Q,6,,1,,,,,,,,,0,16,537,2018-07-22 18:01:38,Condominium,1662.0,752.0,,,,20010.0,,38.937666905,-77.03356572000001,Columbia Heights,015 B Columbia Heights,2502.0,,Ward 4,2692.0,-77.03356802511937,38.93767436487322,NW
1,0,Forced Air,Y,,2,0,1967.0,1979.0,1967,,2018-06-13 00:00:00,308000.0,Q,2,,1,,,,,,,,,0,17,95,2018-07-22 18:01:38,Condominium,1014.0,490.0,,,,20037.0,,38.9047162,-77.04944216,Central-tri 1,,5500.0,,Ward 2,51.0,-77.04944445595534,38.90472365301228,NW
1,0,Warm Cool,Y,,3,1,1965.0,,1965,,2000-12-12 00:00:00,109000.0,Q,1,,1,,,,,,,,,0,17,586,2018-07-22 18:01:38,Condominium,2275.0,918.0,,,,20024.0,,38.87295308,-77.018229725,Southwest Waterfront,,11000.0,,Ward 6,504.0,-77.0182320053148,38.87296053228547,SW
1,0,Forced Air,Y,,4,1,2006.0,2006.0,2006,,2016-01-11 00:00:00,,U,6,,1,,,,,,,,,0,17,214,2018-07-22 18:01:38,Condominium,2761.0,774.0,,,,20005.0,,38.91049082,-77.03344358,Old City 2,040 E Old City 2,5201.0,,Ward 2,209.0,-77.03344587882418,38.91049827755338,NW
1,0,Warm Cool,Y,1.0,6,3,1937.0,1987.0,1947,2.0,2002-04-12 00:00:00,,U,1,971.0,1,2 Story,Semi-Detached,Above Average,Average,Common Brick,Built Up,Hardwood,1.0,0,13,3577,2018-07-22 18:01:43,Residential,,,3435 CARPENTER STREET SE,WASHINGTON,DC,20020.0,18S UJ 30367 04186,38.8701717,-76.95535038,Hillcrest,028 B Hillcrest,9901.0,009901 2028,Ward 7,5537.0,-76.95549380621544,38.870105954614,SE
1,0,Forced Air,Y,,3,1,1931.0,2009.0,1931,,2014-01-14 00:00:00,264000.0,Q,1,,1,,,,,,,,,0,16,1168,2018-07-22 18:01:38,Condominium,3174.0,823.0,,,,20012.0,,38.97282302,-77.01908035,Brightwood,006 D Brightwood,1702.0,,Ward 4,3275.0,-77.01908264271971,38.97283048416732,NW
1,0,Ht Pump,Y,,3,1,1940.0,1975.0,1940,,2007-05-29 00:00:00,,U,1,,1,,,,,,,,,1,16,1066,2018-07-22 18:01:38,Condominium,1279.0,608.0,,,,20020.0,,38.86444768,-76.95130589,Hillcrest,028 C Hillcrest,7603.0,,Ward 7,5673.0,-76.95130815180231,38.86445546230031,SE
1,1,Forced Air,Y,,5,1,2000.0,2000.0,1900,,2017-09-27 00:00:00,542000.0,Q,5,,1,,,,,,,,,0,16,313,2018-07-22 18:01:38,Condominium,2506.0,888.0,,,,20001.0,,38.91724468,-77.02738455,Old City 2,040 F Old City 2,4400.0,,Ward 1,304.0,-77.02738683545661,38.91725213304133,NW
4,0,Hot Water Rad,N,4.0,12,4,1932.0,,1954,2.0,1998-06-16 00:00:00,,U,1,2964.0,1,2 Story,Multi,Average,Average,Common Brick,Metal- Sms,Hardwood,4.0,0,23,2425,2018-07-22 18:01:43,Residential,,,1110 RAUM STREET NE,WASHINGTON,DC,20002.0,18S UJ 27776 08596,38.90937946,-76.9863072,Trinidad,052 A Trinidad,8804.0,008804 2013,Ward 5,4053.0,-76.98577045296885,38.90971977995003,NE
2,0,Ht Pump,Y,,4,2,1922.0,2014.0,1922,,2014-02-25 00:00:00,650000.0,U,2,,1,,,,,,,,,0,16,871,2018-07-22 18:01:38,Condominium,5082.0,1060.0,,,,20010.0,,38.93020213,-77.02874231999998,Columbia Heights,015 D Columbia Heights,3000.0,,Ward 1,2844.0,-77.02874461358513,38.930209593108145,NW
2,1,Hot Water Rad,Y,,4,2,2002.0,,2002,,2015-06-04 00:00:00,1065000.0,Q,4,,1,,,,,,,,,0,16,1173,2018-07-22 18:01:38,Condominium,2564.0,1345.0,,,,20007.0,,38.90650087,-77.05627679999998,Georgetown,025 J Georgetown,100.0,,Ward 2,1215.0,-77.05627909774448,38.90650832163847,NW
2,0,Hot Water Rad,N,2.0,8,5,1900.0,2012.0,1963,3.0,2012-05-08 00:00:00,960750.0,Q,1,2602.0,1,3 Story,Row Inside,Good Quality,Average,Common Brick,Built Up,Hardwood,2.0,2,24,1800,2018-07-22 18:01:43,Residential,,,1339 T STREET NW,WASHINGTON,DC,20009.0,18S UJ 23912 09390,38.91576783,-77.03104987,Old City 2,040 E Old City 2,4400.0,004400 2008,Ward 1,237.0,-77.03073917141384,38.91638829658692,NW
3,1,Warm Cool,Y,1.0,6,3,1959.0,2009.0,1978,3.0,2016-10-07 00:00:00,,U,3,2108.0,1,3 Story,Row Inside,Above Average,Good,Common Brick,Built Up,Hardwood,1.0,1,11,1768,2018-07-22 18:01:43,Residential,,,2514 I STREET NW,WASHINGTON,DC,20037.0,18S UJ 21890 07732,38.90042136,-77.05391975,Foggy Bottom,,5600.0,005600 2000,Ward 2,17.0,-77.05387180438969,38.900447570720594,NW
3,1,Forced Air,Y,1.0,7,3,1923.0,2007.0,1964,2.0,2008-10-03 00:00:00,455000.0,Q,1,1630.0,1,2 Story,Row Inside,Average,Good,Common Brick,Built Up,Hardwood,1.0,1,11,1700,2018-07-22 18:01:43,Residential,,,4917 9TH STREET NW,WASHINGTON,DC,20011.0,18S UJ 24501 13220,38.95037336,-77.02524140000001,Petworth,042 B Petworth,2201.0,002201 3004,Ward 4,3009.0,-77.02468450583922,38.950308978426406,NW
1,0,Forced Air,Y,,4,1,2006.0,,2006,,2017-10-10 00:00:00,450000.0,Q,5,,1,,,,,,,,,0,17,421,2018-07-22 18:01:38,Condominium,1855.0,733.0,,,,20001.0,,38.91731411,-77.01385054,Ledroit Park,031 B Ledroit Park,3301.0,,Ward 5,3115.0,-77.0138528241697,38.91732156996624,NW
2,0,Warm Cool,Y,1.0,5,3,2005.0,,2009,2.0,2004-11-18 00:00:00,146690.0,Q,1,1088.0,1,2 Story,Semi-Detached,Above Average,Good,Vinyl Siding,Comp Shingle,Hardwood/Carp,1.0,0,13,2737,2018-07-22 18:01:43,Residential,,,1890 ALABAMA AVENUE SE,WASHINGTON,DC,20020.0,18S UJ 28481 02031,38.85043169,-76.97652128,Randle Heights,043 D Randle Heights,7404.0,007404 1008,Ward 8,5882.0,-76.9775578583487,38.84996892952511,SE
4,0,Hot Water Rad,N,4.0,16,4,1935.0,,1943,2.0,2001-06-21 00:00:00,96000.0,U,1,2800.0,1,2 Story,Multi,Average,Average,Common Brick,Built Up,Hardwood,4.0,0,23,3777,2018-07-22 18:01:43,Residential,,,4831 NEW HAMPSHIRE AVENUE NW,WASHINGTON,DC,20011.0,18S UJ 25465 13114,38.94961044,-77.0140931,Petworth,042 C Petworth,2202.0,002202 1001,Ward 4,3401.0,-77.01059369978087,38.95116451020996,NW
2,1,Warm Cool,Y,,6,3,1979.0,,1979,,,,U,1,,1,,,,,,,,,0,16,3129,2018-07-22 18:01:38,Condominium,3032.0,1881.0,,,,20018.0,,38.92593807,-76.96284164,Fort Lincoln,,9000.0,,Ward 5,4326.0,-76.96284390490514,38.92594552939342,NE
2,1,Warm Cool,Y,1.0,6,3,1987.0,,1989,2.0,,,U,1,1400.0,1,2 Story,Row End,Above Average,Average,Brick/Siding,Comp Shingle,Wood Floor,1.0,1,11,2708,2018-07-22 18:01:43,Residential,,,1814 VALLEY TERRACE SE,WASHINGTON,DC,20032.0,18S UJ 28352 00915,38.84031878,-76.97774408,Randle Heights,043 C Randle Heights,7304.0,007304 1012,Ward 8,5905.0,-76.97721797584744,38.84105951138904,SE
2,0,Forced Air,N,1.0,7,3,1930.0,,1957,2.0,2008-01-18 00:00:00,319999.0,Q,1,1348.0,1,2 Story,Single,Above Average,Average,Brick/Stucco,Comp Shingle,Hardwood,1.0,1,12,2684,2018-07-22 18:01:43,Residential,,,1927 HAMLIN STREET NE,WASHINGTON,DC,20018.0,18S UJ 28650 10593,38.92753433,-76.97673024,Woodridge,056 C Woodridge,11100.0,011100 2019,Ward 5,4210.0,-76.97734005567686,38.92751531209213,NE
1,0,Ht Pump,Y,,3,1,2005.0,,2005,,2014-05-09 00:00:00,445000.0,Q,3,,1,,,,,,,,,0,17,10,2018-07-22 18:01:38,Condominium,3075.0,793.0,,,,20001.0,,38.89901325,-77.02148864,Central-tri 3,,5800.0,,Ward 2,455.0,-77.02149092892931,38.899020698514,NW
2,0,Warm Cool,Y,1.0,7,3,1939.0,,1954,2.0,,,U,1,1181.0,1,2 Story,Single,Very Good,Average,Common Brick,Comp Shingle,Hardwood,1.0,1,12,5007,2018-07-22 18:01:43,Residential,,,4922 ESKRIDGE TERRACE NW,WASHINGTON,DC,20016.0,18S UJ 18058 10858,38.92779296,-77.09891126,Kent,030 C Kent,902.0,000902 1005,Ward 3,1423.0,-77.09904715112779,38.92708249464118,NW
2,0,Warm Cool,Y,,5,2,1986.0,,1986,,1999-03-01 00:00:00,,U,1,,1,,,,,,,,,0,16,479,2018-07-22 18:01:38,Condominium,2390.0,928.0,,,,20007.0,,38.905729705,-77.056573575,Georgetown,025 J Georgetown,100.0,,Ward 2,1214.0,-77.05657586694403,38.90573715757482,NW
2,1,Hot Water Rad,Y,1.0,7,4,1917.0,2017.0,1969,2.0,2017-03-20 00:00:00,1050000.0,Q,4,1824.0,1,2 Story,Semi-Detached,Good Quality,Good,Wood Siding,Metal- Sms,Hardwood,1.0,1,13,3900,2018-07-22 18:01:43,Residential,,,3914 MCKINLEY STREET NW,WASHINGTON,DC,20015.0,18S UJ 19941 14911,38.96467834,-77.07827432,Chevy Chase,011 A Chevy Chase,1100.0,001100 1006,Ward 3,1747.0,-77.07857729218006,38.96457397162123,NW
2,0,Forced Air,Y,,4,2,2004.0,2004.0,2004,,2012-06-14 00:00:00,554200.0,Q,1,,1,,,,,,,,,0,17,209,2018-07-22 18:01:38,Condominium,2637.0,1020.0,,,,20005.0,,38.90625234,-77.03000597,Old City 2,040 C Old City 2,5002.0,,Ward 2,245.0,-77.03000826234306,38.90625979043767,NW
2,1,Hot Water Rad,N,1.0,6,3,1931.0,1975.0,1957,2.0,,,U,1,1462.0,1,2 Story,Single,Good Quality,Average,Common Brick,Clay Tile,Hardwood,1.0,1,12,5512,2018-07-22 18:01:43,Residential,,,6101 UTAH AVENUE NW,WASHINGTON,DC,20015.0,18S UJ 21374 15483,38.97012211,-77.06189069,Chevy Chase,011 D Chevy Chase,1500.0,001500 3006,Ward 4,2335.0,-77.06060435894909,38.9715992221389,NW
4,1,Warm Cool,Y,1.0,9,4,1909.0,2017.0,1988,2.5,2016-12-16 00:00:00,1750000.0,Q,2,2485.0,1,2.5 Story Fin,Single,Excellent,Good,Stucco,Comp Shingle,Default,1.0,1,12,5226,2018-07-22 18:01:43,Residential,,,3031 MACOMB STREET NW,WASHINGTON,DC,20008.0,18S UJ 21349 11435,38.93366207,-77.06112285,Cleveland Park,,600.0,000600 2005,Ward 3,2082.0,-77.05976492597185,38.933980503606136,NW
2,0,Ht Pump,Y,,5,2,2007.0,,2007,,2016-08-12 00:00:00,775000.0,Q,4,,1,,,,,,,,,4,16,459,2018-07-22 18:01:38,Condominium,2889.0,1338.0,,,,20003.0,,38.88363022,-76.99219719999998,Capitol Hill,009 B Capitol Hill,6900.0,,Ward 6,972.0,-76.99219948115284,38.883637671192545,SE
1,0,Hot Water Rad,N,1.0,6,2,1927.0,,1943,1.0,,,U,1,1028.0,1,1 Story,Single,Average,Average,Vinyl Siding,Shake,Hardwood,1.0,0,12,4465,2018-07-22 18:01:43,Residential,,,3325 E STREET SE,WASHINGTON,DC,20019.0,18S UJ 30125 05576,38.88264074,-76.95848083,Fort Dupont Park,022 A Fort Dupont Park,7708.0,007708 2016,Ward 7,5452.0,-76.95902807673912,38.882541238510655,SE
1,0,Hot Water Rad,N,1.0,7,3,1930.0,,1954,2.0,,,U,1,1260.0,1,2 Story,Row Inside,Average,Average,Common Brick,Built Up,Hardwood,1.0,0,11,1585,2018-07-22 18:01:43,Residential,,,524 21ST STREET NE,WASHINGTON,DC,20002.0,18S UJ 28760 07183,38.89684608,-76.97460912,Old City 1,039 H Old City 1,7903.0,007903 1007,Ward 7,4525.0,-76.97512930529888,38.89706800734601,NE
2,0,Forced Air,Y,,5,2,1951.0,1972.0,1951,,2015-07-28 00:00:00,615000.0,U,5,,1,,,,,,,,,0,17,1147,2018-07-22 18:01:38,Condominium,1064.0,1666.0,,,,20016.0,,38.93693126,-77.08388758000002,Cleveland Park,,1002.0,,Ward 3,1717.0,-77.0838898847732,38.93693871467485,NW
1,1,Hot Water Rad,N,1.0,6,3,1923.0,,1950,2.0,1998-09-28 00:00:00,,U,1,1444.0,1,2 Story,Row Inside,Good Quality,Average,Common Brick,Metal- Sms,Hardwood,1.0,0,11,2946,2018-07-22 18:01:43,Residential,,,1228 INGRAHAM STREET NW,WASHINGTON,DC,20011.0,18S UJ 24199 13616,38.95387937,-77.02882265,16th Street Heights,049 C 16th Street Heights,2002.0,002002 3004,Ward 4,2930.0,-77.02869585801558,38.95388652198296,NW
1,0,Hot Water Rad,N,1.0,7,4,1915.0,,1957,2.0,2003-05-28 00:00:00,,U,1,1540.0,1,2 Story,Row Inside,Above Average,Average,Common Brick,Metal- Sms,Hardwood,1.0,0,11,1870,2018-07-22 18:01:43,Residential,,,637 QUEBEC PLACE NW,WASHINGTON,DC,20010.0,18S UJ 24862 11680,38.93658194,-77.02067696,Columbia Heights,015 C Columbia Heights,3200.0,003200 1001,Ward 1,3034.0,-77.02024606545348,38.93599123538132,NW
3,1,Forced Air,Y,1.0,8,4,2014.0,,2015,2.0,2015-02-11 00:00:00,545625.0,Q,2,1384.0,1,2 Story,Row End,Good Quality,Very Good,Common Brick,Comp Shingle,Hardwood,1.0,0,11,1269,2018-07-22 18:01:43,Residential,,,171 CONCORD PLACE NE,WASHINGTON,DC,20011.0,18S UJ 26246 14703,38.96408356,-77.00548935,Takoma Park,,9505.0,009505 2010,Ward 4,3719.0,-77.00495743466102,38.96408168191586,NE
1,0,Forced Air,N,1.0,5,2,1947.0,,1947,2.0,2012-06-05 00:00:00,,U,1,800.0,1,2 Story,Row End,Average,Average,Common Brick,Comp Shingle,Hardwood,1.0,0,11,2104,2018-07-22 18:01:43,Residential,,,3479 24TH STREET SE,WASHINGTON,DC,20020.0,18S UJ 28971 01488,38.84559898,-76.9707536,Randle Heights,043 C Randle Heights,7409.0,007409 1002,Ward 8,5896.0,-76.97097069027605,38.84658350104903,SE
1,0,Ht Pump,Y,,3,1,2005.0,,2005,,2005-06-16 00:00:00,5394400.0,U,1,,1,,,,,,,,,0,17,250,2018-07-22 18:01:38,Condominium,3074.0,743.0,,,,20016.0,,38.948745875,-77.081322025,American University,001 B American University,1001.0,,Ward 3,1730.0,-77.08132432916031,38.948753334817376,NW
4,1,Warm Cool,Y,1.0,13,5,1923.0,2013.0,1988,2.0,2015-06-29 00:00:00,2750000.0,Q,3,3428.0,1,2 Story,Single,Exceptional-A,Good,Stucco,Clay Tile,Hardwood,1.0,3,12,4763,2018-07-22 18:01:43,Residential,,,2441 CALIFORNIA STREET NW,WASHINGTON,DC,20008.0,18S UJ 21873 09437,38.91577714,-77.05456256,Kalorama,029 A Kalorama,4100.0,004100 3001,Ward 2,2505.0,-77.05475624618606,38.91613686285204,NW
1,0,Forced Air,Y,,3,1,2003.0,,2003,,2004-12-16 00:00:00,300000.0,Q,1,,1,,,,,,,,,0,17,297,2018-07-22 18:01:38,Condominium,2574.0,604.0,,,,20002.0,,38.89431222,-76.99569866499998,Old City 1,039 K Old City 1,8302.0,,Ward 6,894.0,-76.99570093924758,38.89431967410857,NE
1,0,Forced Air,Y,,2,0,1964.0,1982.0,1964,,2018-05-29 00:00:00,250000.0,Q,2,,1,,,,,,,,,0,17,95,2018-07-22 18:01:38,Condominium,2227.0,421.0,,,,20005.0,,38.907013065,-77.03357597499998,Old City 2,040 C Old City 2,5201.0,,Ward 2,212.0,-77.03357827059531,38.907020521412,NW
1,0,Ht Pump,Y,,4,2,2006.0,2006.0,2006,,2017-11-07 00:00:00,575000.0,Q,4,,1,,,,,,,,,0,17,153,2018-07-22 18:01:38,Condominium,2763.0,978.0,,,,20001.0,,38.90476073,-77.02429751,Old City 2,040 C Old City 2,4902.0,,Ward 2,369.0,-77.02429980189362,38.904768182770574,NW
1,1,Forced Air,Y,1.0,5,2,1870.0,2004.0,1954,2.0,,,U,1,1384.0,1,2 Story,Row Inside,Average,Good,Wood Siding,Metal- Sms,Hardwood,1.0,1,11,1480,2018-07-22 18:01:43,Residential,,,1729 11TH STREET NW,WASHINGTON,DC,20001.0,18S UJ 24279 09126,38.91345888,-77.02674515,Old City 2,040 G Old City 2,4901.0,004901 1003,Ward 6,335.0,-77.02642256026678,38.913442883973715,NW
2,0,Forced Air,Y,,4,2,2005.0,2005.0,2005,,2014-12-09 00:00:00,659000.0,Q,3,,1,,,,,,,,,1,17,184,2018-07-22 18:01:38,Condominium,2706.0,1081.0,,,,20009.0,,38.91742148,-77.02931313,Old City 2,040 F Old City 2,4400.0,,Ward 1,273.0,-77.02931543191539,38.917428931990585,NW
2,1,Forced Air,Y,1.0,6,4,1930.0,1993.0,1967,2.0,2006-12-06 00:00:00,,U,1,1875.0,1,3 Story,Row Inside,Very Good,Average,Common Brick,Slate,Hardwood,1.0,1,11,1814,2018-07-22 18:01:43,Residential,,,1503 44TH STREET NW,WASHINGTON,DC,20007.0,18S UJ 19663 08718,38.90885095,-77.07984773,Foxhall,,802.0,000802 2010,Ward 3,1327.0,-77.08054529401032,38.90995117583466,NW
1,1,Hot Water Rad,N,1.0,8,4,1900.0,,1943,2.0,2018-02-20 00:00:00,429000.0,U,4,1897.0,1,2 Story,Single,Average,Average,Shingle,Comp Shingle,Hardwood,1.0,1,12,5769,2018-07-22 18:01:43,Residential,,,1027 IRVING STREET NE,WASHINGTON,DC,20017.0,18S UJ 27369 10713,38.92836564,-76.99152675,Brookland,007 E Brookland,9301.0,009301 2025,Ward 5,3876.0,-76.99141840858401,38.927893855501644,NE
1,2,Warm Cool,Y,1.0,6,3,1912.0,,1961,2.0,2017-09-21 00:00:00,,U,2,1409.0,1,2 Story,Single,Very Good,Average,Wood Siding,Comp Shingle,Hardwood,1.0,1,12,4864,2018-07-22 18:01:43,Residential,,,3315 ROSS PLACE NW,WASHINGTON,DC,20008.0,18S UJ 21373 11492,38.9341773,-77.06086494,Cleveland Park,,600.0,000600 2006,Ward 3,2082.0,-77.05976492597185,38.933980503606136,NW
2,0,Warm Cool,Y,2.0,8,3,1927.0,,1969,2.0,,,U,1,2067.0,1,2 Story,Row Inside,Good Quality,Average,Common Brick,Metal- Sms,Hardwood,2.0,1,24,2741,2018-07-22 18:01:43,Residential,,,1524 12TH STREET NW,WASHINGTON,DC,20005.0,18S UJ 24135 08834,38.91080114,-77.02833044,Old City 2,040 G Old City 2,5001.0,005001 1007,Ward 2,278.0,-77.02866144080069,38.91049436316491,NW
1,1,Forced Air,Y,1.0,5,3,1947.0,,1947,2.0,,,U,1,1152.0,1,2 Story,Row End,Average,Average,Common Brick,Built Up,Hardwood,1.0,0,11,2833,2018-07-22 18:01:43,Residential,,,3977 CLAY PLACE NE,WASHINGTON,DC,20019.0,18S UJ 31083 06648,38.89248077,-76.94770049,Deanwood,018 A Deanwood,9603.0,009603 2003,Ward 7,5050.0,-76.94911794046924,38.8921311070536,NE
2,1,Hot Water Rad,N,1.0,9,6,1913.0,,1963,3.0,,,U,1,2488.0,1,3 Story,Row Inside,Very Good,Average,Stucco,Metal- Sms,Hardwood,1.0,2,11,1540,2018-07-22 18:01:43,Residential,,,1821 KENYON STREET NW,WASHINGTON,DC,20010.0,18S UJ 22957 10980,38.9298891,-77.04246714,Mt. Pleasant,036 A Mt. Pleasant,2702.0,002702 3009,Ward 1,2599.0,-77.04211778691986,38.930148393667714,NW
3,1,Forced Air,Y,1.0,8,5,1919.0,2006.0,1984,2.0,2016-06-22 00:00:00,835000.0,Q,5,1972.0,1,2 Story,Row Inside,Above Average,Good,Common Brick,Metal- Sms,Carpet,2.0,0,11,3105,2018-07-22 18:01:43,Residential,,,1323 RANDOLPH STREET NW,WASHINGTON,DC,20011.0,18S UJ 23973 11957,38.93889155,-77.03100423,Columbia Heights,015 B Columbia Heights,2502.0,002502 3002,Ward 4,2824.0,-77.03123928080966,38.93925807631247,NW
1,1,Hot Water Rad,N,1.0,4,2,1939.0,2014.0,1964,2.0,,,U,1,984.0,1,2 Story,Row Inside,Average,Average,Common Brick,Neopren,Hardwood/Carp,1.0,0,11,968,2018-07-22 18:01:43,Residential,,,2010 E STREET NE,WASHINGTON,DC,20002.0,18S UJ 28656 07122,38.89627412,-76.97579529,Old City 1,039 H Old City 1,7903.0,007903 1010,Ward 7,4526.0,-76.97556094101327,38.89627296838405,NE
2,2,Warm Cool,Y,1.0,7,3,1900.0,,1960,2.0,2015-04-06 00:00:00,,U,3,1734.0,1,2 Story,Row Inside,Good Quality,Average,Common Brick,Metal- Sms,Hardwood,1.0,1,11,1818,2018-07-22 18:01:43,Residential,,,231 9TH STREET SE,WASHINGTON,DC,20003.0,18S UJ 27055 06080,38.88657598,-76.99397638,Capitol Hill,009 B Capitol Hill,6700.0,006700 3009,Ward 6,923.0,-76.99444212077577,38.88681548031911,SE
7,1,Warm Cool,Y,1.0,10,8,1949.0,2009.0,1971,2.5,2008-10-22 00:00:00,537000.0,U,1,7401.0,1,2.5 Story Fin,Single,Above Average,Good,Stucco,Comp Shingle,Hardwood,1.0,2,12,10455,2018-07-22 18:01:43,Residential,,,2010 YORKTOWN ROAD NW,WASHINGTON,DC,20012.0,18S UJ 22942 17480,38.98842787,-77.04431432,Colonial Village,,1600.0,001600 4001,Ward 4,2755.0,-77.04510104735951,38.990014236885756,NW
3,1,Forced Air,Y,1.0,7,4,1900.0,2009.0,1967,2.0,2013-05-08 00:00:00,740000.0,Q,1,1548.0,1,2 Story,Row Inside,Above Average,Good,Common Brick,Built Up,Hardwood/Carp,2.0,0,11,1440,2018-07-22 18:01:43,Residential,,,636 L STREET NE,WASHINGTON,DC,20002.0,18S UJ 26814 08009,38.9039055,-76.99724542,Old City 1,039 L Old City 1,10600.0,010600 1005,Ward 6,855.0,-76.99742845477027,38.90471156478065,NE
3,1,Forced Air,Y,2.0,7,3,1908.0,2010.0,1969,2.0,2006-06-23 00:00:00,750000.0,Q,1,1790.0,1,2 Story,Row End,Good Quality,Good,Brick/Siding,Neopren,Hardwood,2.0,0,24,1535,2018-07-22 18:01:43,Residential,,,308 10TH STREET NE,WASHINGTON,DC,20002.0,18S UJ 27167 06889,38.89388937,-76.99288979,Old City 1,039 K Old City 1,8100.0,008100 2002,Ward 6,938.0,-76.9929168257848,38.89409536883875,NE
3,0,Hot Water Rad,Y,2.0,10,4,1887.0,2017.0,1984,3.0,2017-12-04 00:00:00,1700000.0,Q,4,2214.0,1,3 Story,Row Inside,Very Good,Good,Common Brick,Built Up,Hardwood,2.0,3,24,1350,2018-07-22 18:01:43,Residential,,,1821 1/2 SWANN STREET NW,WASHINGTON,DC,20009.0,18S UJ 22927 09321,38.91494712,-77.04238790000002,Old City 2,040 D Old City 2,4202.0,004202 2001,Ward 2,132.0,-77.04250279268146,38.91497962758359,NW
4,0,Hot Water Rad,N,4.0,20,4,1937.0,2012.0,1967,2.0,2011-09-14 00:00:00,335000.0,Q,1,3200.0,1,2 Story,Multi,Above Average,Good,Common Brick,Built Up,Hardwood,4.0,0,23,5006,2018-07-22 18:01:43,Residential,,,812 TAYLOR STREET NE,WASHINGTON,DC,20017.0,18S UJ 27168 12113,38.94093292,-76.99419545,Brookland,007 C Brookland,9504.0,009504 2001,Ward 5,3814.0,-76.9933626241885,38.940942602872546,NE
3,1,Hot Water Rad,Y,2.0,10,3,1891.0,2003.0,1982,2.0,2016-09-12 00:00:00,1300000.0,Q,3,1727.0,1,2 Story,Row Inside,Good Quality,Very Good,Brick/Stone,Metal- Sms,Hardwood,2.0,2,24,1598,2018-07-22 18:01:43,Residential,,,114 12TH STREET NE,WASHINGTON,DC,20002.0,18S UJ 27365 06547,38.89084618,-76.99052008,Old City 1,039 K Old City 1,8100.0,008100 3009,Ward 6,988.0,-76.9908772829513,38.89112863840032,NE
1,0,Hot Water Rad,N,1.0,5,2,1942.0,,1954,2.0,1992-11-05 00:00:00,81000.0,Q,1,832.0,1,2 Story,Row End,Average,Average,Common Brick,Metal- Sms,Hardwood,1.0,0,11,1523,2018-07-22 18:01:43,Residential,,,3315 BLAINE STREET NE,WASHINGTON,DC,20019.0,18S UJ 30042 06597,38.89181539,-76.95969019,Lily Ponds,032 B Lily Ponds,9604.0,009604 1001,Ward 7,5000.0,-76.95940823080286,38.89118931578989,NE
3,1,Forced Air,Y,1.0,7,5,1935.0,2003.0,1972,2.5,2012-06-11 00:00:00,1060000.0,Q,1,2718.0,1,2.5 Story Fin,Single,Very Good,Good,Brick/Stucco,Comp Shingle,Hardwood,1.0,1,12,5304,2018-07-22 18:01:43,Residential,,,4604 46TH STREET NW,WASHINGTON,DC,20016.0,18S UJ 18813 13308,38.95000999,-77.09086322,American University,001 B American University,1001.0,001001 3001,Ward 3,1547.0,-77.09161185440263,38.950418280009934,NW
2,0,Ht Pump,Y,,4,2,2016.0,,2016,,2017-05-15 00:00:00,804215.0,U,2,,1,,,,,,,,,0,17,114,2018-07-22 18:01:38,Condominium,5309.0,1075.0,,,,20001.0,,38.90659285,-77.02640222,Old City 2,040 C Old City 2,4902.0,,Ward 2,340.0,-77.02640450691715,38.906600300192615,NW
1,0,Warm Cool,Y,,3,1,1959.0,,1959,,2016-03-29 00:00:00,345500.0,U,4,,1,,,,,,,,,0,17,246,2018-07-22 18:01:38,Condominium,2303.0,693.0,,,,20002.0,,38.89324913500001,-77.00131166999998,Capitol Hill,009 C Capitol Hill,8200.0,,Ward 6,783.0,-77.00131394729067,38.89325658528424,NE
4,0,Forced Air,N,4.0,16,8,1942.0,,1943,2.0,1996-07-30 00:00:00,112000.0,Q,1,2800.0,1,2 Story,Multi,Average,Average,Common Brick,Built Up,Hardwood,4.0,0,23,3804,2018-07-22 18:01:43,Residential,,,305 34TH STREET SE,WASHINGTON,DC,20019.0,18S UJ 30193 05915,38.88570307,-76.95777573,Fort Dupont Park,022 A Fort Dupont Park,7708.0,007708 2009,Ward 7,5432.0,-76.95836968026214,38.88540273489253,SE
2,2,Hot Water Rad,Y,1.0,6,3,1926.0,2015.0,1969,2.0,2007-09-13 00:00:00,,U,1,1981.0,1,2 Story,Single,Good Quality,Average,Brick/Siding,Comp Shingle,Hardwood,1.0,1,12,5329,2018-07-22 18:01:43,Residential,,,5524 NEBRASKA AVENUE NW,WASHINGTON,DC,20015.0,18S UJ 21223 14875,38.96461723,-77.06347651,Chevy Chase,011 C Chevy Chase,1401.0,001401 1006,Ward 4,2296.0,-77.06356954179395,38.964624689973476,NW
2,1,Forced Air,N,1.0,7,3,1960.0,,1971,1.0,2016-09-27 00:00:00,,U,2,1179.0,1,1 Story,Single,Average,Average,Brick/Siding,Comp Shingle,Hardwood,1.0,1,12,4136,2018-07-22 18:01:43,Residential,,,4831 MEADE STREET NE,WASHINGTON,DC,20019.0,18S UJ 32454 08106,38.90587368,-76.93226121,Deanwood,018 B Deanwood,7806.0,007806 2017,Ward 7,5158.0,-76.93291515823556,38.90541605908812,NE
2,1,Forced Air,Y,1.0,6,3,2008.0,,2011,2.0,2009-07-22 00:00:00,315000.0,Q,1,1632.0,1,2 Story,Row Inside,Above Average,Very Good,Vinyl Siding,Comp Shingle,Carpet,1.0,0,11,2145,2018-07-22 18:01:43,Residential,,,5023 KIMI GRAY COURT SE,WASHINGTON,DC,20019.0,18S UJ 32550 05451,38.881982,-76.93050762,Marshall Heights,033 B Marshall Heights,9904.0,009904 2009,Ward 7,5318.0,-76.93048704835654,38.881992086884615,SE
2,1,Warm Cool,Y,1.0,6,3,1951.0,2016.0,1972,1.0,1997-06-23 00:00:00,220000.0,Q,1,1572.0,1,1 Story,Single,Above Average,Good,Common Brick,Slate,Wood Floor,1.0,1,12,7554,2018-07-22 18:01:43,Residential,,,2268 SUDBURY ROAD NW,WASHINGTON,DC,20012.0,18S UJ 22756 17760,38.99090759,-77.04653959999997,Colonial Village,,1600.0,001600 4025,Ward 4,2754.0,-77.04633877780684,38.989509434006436,NW
2,0,Ht Pump,Y,,4,2,1905.0,1979.0,1905,,2015-04-21 00:00:00,647000.0,Q,6,,1,,,,,,,,,0,16,601,2018-07-22 18:01:38,Condominium,2066.0,1136.0,,,,20009.0,,38.916170075,-77.040092055,Old City 2,040 D Old City 2,4201.0,,Ward 2,151.0,-77.04009434832557,38.91617752904783,NW
2,0,Warm Cool,Y,1.0,7,3,1942.0,2007.0,1967,2.0,2015-07-22 00:00:00,,U,5,1088.0,1,2 Story,Row End,Above Average,Good,Common Brick,Built Up,Hardwood/Carp,1.0,0,11,2692,2018-07-22 18:01:43,Residential,,,845 CRITTENDEN STREET NE,WASHINGTON,DC,20017.0,18S UJ 27267 12794,38.94708607,-76.99322640000003,Brookland,007 B Brookland,9509.0,009509 2011,Ward 5,3794.0,-76.9937913112262,38.94678755035313,NE
2,0,Forced Air,Y,1.0,6,4,1910.0,2005.0,1967,2.0,2015-11-24 00:00:00,,U,4,1254.0,1,2 Story,Row End,Above Average,Good,Common Brick,Metal- Pre,Hardwood,1.0,0,11,1126,2018-07-22 18:01:43,Residential,,,1006 10TH STREET NE,WASHINGTON,DC,20002.0,18S UJ 27194 07888,38.90289223,-76.99283574,Old City 1,039 L Old City 1,8410.0,008410 1009,Ward 6,931.0,-76.99322301446237,38.90329102465529,NE
3,0,Warm Cool,Y,,6,3,1900.0,2011.0,1919,,2012-04-03 00:00:00,545000.0,Q,1,,1,,,,,,,,,1,16,655,2018-07-22 18:01:38,Condominium,4052.0,1517.0,,,,20001.0,,38.91310704,-77.01574769999998,Old City 2,040 A Old City 2,4600.0,,Ward 5,519.0,-77.01574999027719,38.9131144988194,NW
1,0,Forced Air,Y,1.0,5,2,1900.0,,1954,2.0,1995-08-17 00:00:00,86500.0,Q,1,1140.0,1,2 Story,Row Inside,Average,Average,Common Brick,Built Up,Hardwood,1.0,0,11,933,2018-07-22 18:01:43,Residential,,,1354 CONSTITUTION AVENUE NE,WASHINGTON,DC,20002.0,18S UJ 27747 06689,38.89219682,-76.9861542,Old City 1,039 F Old City 1,8002.0,008002 2007,Ward 6,1033.0,-76.98663805953788,38.89292110557724,NE
1,0,Hot Water Rad,N,1.0,7,3,1925.0,,1947,2.0,,,U,1,1106.0,1,2 Story,Semi-Detached,Above Average,Average,Common Brick,Built Up,Hardwood,1.0,0,13,1419,2018-07-22 18:01:43,Residential,,,602 SOMERSET PLACE NW,WASHINGTON,DC,20011.0,18S UJ 24877 15010,38.96656775,-77.02135919,Brightwood,006 C Brightwood,1901.0,001901 3008,Ward 4,3198.0,-77.02117442432639,38.96671767346592,NW
2,0,Warm Cool,Y,1.0,6,3,1950.0,,1963,2.0,2015-05-19 00:00:00,495000.0,Q,2,1544.0,1,2 Story,Single,Above Average,Good,Common Brick,Comp Shingle,Hardwood,1.0,1,12,4900,2018-07-22 18:01:43,Residential,,,4853 QUEENS CHAPEL TERRACE NE,WASHINGTON,DC,20017.0,18S UJ 28246 12909,38.94831847,-76.98196276,Michigan Park,,9503.0,009503 1011,Ward 5,4175.0,-76.98171449791148,38.94844894625261,NE
1,0,Ht Pump,Y,,3,1,1925.0,2010.0,1925,,2012-08-01 00:00:00,299000.0,Q,1,,1,,,,,,,,,0,16,584,2018-07-22 18:01:38,Condominium,1376.0,703.0,,,,20010.0,,38.933748655,-77.028814995,Columbia Heights,015 D Columbia Heights,2900.0,,Ward 1,2833.0,-77.02881728811829,38.93375611700989,NW
2,0,Forced Air,Y,1.0,6,3,2000.0,2013.0,2006,2.0,2013-08-06 00:00:00,605500.0,Q,1,1260.0,1,2 Story,Row Inside,Above Average,Good,Common Brick,Built Up,Hardwood/Carp,1.0,0,11,1930,2018-07-22 18:01:43,Residential,,,816 10TH STREET NE,WASHINGTON,DC,20002.0,18S UJ 27188 07661,38.90084842,-76.99284137,Old City 1,039 L Old City 1,8410.0,008410 1017,Ward 6,933.0,-76.9932582098297,38.90081945298296,NE
1,0,Forced Air,Y,1.0,5,2,1941.0,2004.0,1954,2.0,,,U,1,870.0,1,2 Story,Row Inside,Average,Average,Common Brick,Metal- Sms,Hardwood,1.0,0,11,828,2018-07-22 18:01:43,Residential,,,5024 JUST STREET NE,WASHINGTON,DC,20019.0,18S UJ 32688 07774,38.90291405,-76.929487,Deanwood,018 B Deanwood,7809.0,007809 1001,Ward 7,5176.0,-76.92872104435122,38.90267575000168,NE
2,0,Ht Pump,Y,,4,2,1980.0,,1980,,2014-07-28 00:00:00,,U,4,,1,,,,,,,,,0,16,351,2018-07-22 18:01:38,Condominium,2388.0,857.0,,,,20007.0,,38.90552386,-77.06562295,Georgetown,025 E Georgetown,202.0,,Ward 2,1206.0,-77.06562525031387,38.905531312939466,NW
2,0,Warm Cool,Y,1.0,8,3,1925.0,,1954,2.0,2010-03-25 00:00:00,,U,1,1130.0,1,2 Story,Row Inside,Average,Average,Common Brick,Built Up,Hardwood,1.0,0,11,1466,2018-07-22 18:01:43,Residential,,,442 BUCHANAN STREET NW,WASHINGTON,DC,20011.0,18S UJ 25036 12741,38.94616562,-77.01894859,Petworth,042 C Petworth,2301.0,002301 1000,Ward 4,3248.0,-77.0184352340534,38.94588124816325,NW
1,0,Warm Cool,Y,,5,2,1959.0,2005.0,1959,,2012-11-19 00:00:00,,U,1,,1,,,,,,,,,0,17,765,2018-07-22 18:01:38,Condominium,2753.0,974.0,,,,20007.0,,38.9202441,-77.0751272,Glover Park,,300.0,,Ward 3,1301.0,-77.07512949882778,38.92025155961024,NW
1,1,Warm Cool,Y,,4,2,1978.0,,1978,,2016-07-07 00:00:00,,U,2,,1,,,,,,,,,1,16,1811,2018-07-22 18:01:38,Condominium,3031.0,982.0,,,,20018.0,,38.92506979,-76.95977097,Fort Lincoln,,9000.0,,Ward 5,4325.0,-76.95977324227054,38.925077248824046,NE
1,0,Forced Air,Y,,3,1,2000.0,2000.0,1900,,2005-05-02 00:00:00,371000.0,Q,1,,1,,,,,,,,,1,16,235,2018-07-22 18:01:38,Condominium,2506.0,646.0,,,,20001.0,,38.91724468,-77.02738455,Old City 2,040 F Old City 2,4400.0,,Ward 1,304.0,-77.02738683545661,38.91725213304133,NW
1,0,Hot Water Rad,N,1.0,6,3,1927.0,2000.0,1954,2.0,2009-09-25 00:00:00,,U,1,1216.0,1,2 Story,Row Inside,Average,Average,Brick/Siding,Built Up,Hardwood,1.0,0,11,2400,2018-07-22 18:01:43,Residential,,,754 19TH STREET NE,WASHINGTON,DC,20002.0,18S UJ 28605 07482,38.89950772,-76.97646605,Trinidad,052 C Trinidad,8904.0,008904 2006,Ward 5,4507.0,-76.97725044442403,38.89964161967971,NE
1,0,Warm Cool,Y,1.0,5,2,1941.0,1987.0,1954,2.0,,,U,1,986.0,1,2 Story,Row Inside,Average,Average,Common Brick,Metal- Sms,Hardwood,1.0,0,11,1796,2018-07-22 18:01:43,Residential,,,4944 JAY STREET NE,WASHINGTON,DC,20019.0,18S UJ 32656 07673,38.902015399999996,-76.92982198,Deanwood,018 B Deanwood,7809.0,007809 1002,Ward 7,5176.0,-76.92872104435122,38.90267575000168,NE
2,1,Hot Water Rad,Y,1.0,6,3,1900.0,2007.0,1969,2.0,2014-08-28 00:00:00,761500.0,Q,2,1440.0,1,2 Story,Row Inside,Good Quality,Good,Common Brick,Neopren,Wood Floor,1.0,1,11,1120,2018-07-22 18:01:43,Residential,,,915 F STREET NE,WASHINGTON,DC,20002.0,18S UJ 27151 07251,38.89714132,-76.99316636,Old City 1,039 K Old City 1,8402.0,008402 2007,Ward 6,936.0,-76.99332974628841,38.89694979617006,NE
3,0,Forced Air,Y,1.0,8,3,1934.0,2014.0,1969,2.0,2015-03-02 00:00:00,540000.0,Q,3,1457.0,1,2 Story,Row Inside,Good Quality,Good,Common Brick,Metal- Sms,Hardwood,1.0,2,11,1800,2018-07-22 18:01:43,Residential,,,5223 NEW HAMPSHIRE AVENUE NW,WASHINGTON,DC,20011.0,18S UJ 25762 13601,38.9540552,-77.01078784,Petworth,042 C Petworth,2102.0,002102 2008,Ward 4,3397.0,-77.01045023950041,38.95382865773829,NW
1,0,Hot Water Rad,N,1.0,6,3,1930.0,,1954,2.0,2005-06-10 00:00:00,,U,1,1144.0,1,2 Story,Row Inside,Average,Average,Common Brick,Metal- Sms,Hardwood,1.0,0,11,1464,2018-07-22 18:01:43,Residential,,,516 25TH PLACE NE,WASHINGTON,DC,20002.0,18S UJ 28997 07151,38.89660628,-76.97187393,Old City 1,039 H Old City 1,7903.0,007903 1001,Ward 7,4517.0,-76.9719867101397,38.897081144072736,NE
1,0,Warm Cool,Y,1.0,7,4,1911.0,,1954,3.0,2002-02-20 00:00:00,,U,1,2167.0,1,3 Story,Single,Very Good,Average,Vinyl Siding,Shake,Hardwood,1.0,1,12,4063,2018-07-22 18:01:43,Residential,,,3805 FULTON STREET NW,WASHINGTON,DC,20007.0,18S UJ 20124 10660,38.92643732,-77.07504039,Observatory Circle,,701.0,000701 4005,Ward 3,1813.0,-77.07604880945868,38.92691149517111,NW
1,1,Hot Water Rad,N,1.0,6,3,1935.0,,1967,2.0,2016-06-16 00:00:00,,U,2,1309.0,1,2 Story,Single,Above Average,Good,Common Brick,Slate,Hardwood,1.0,1,12,4897,2018-07-22 18:01:43,Residential,,,5718 1ST STREET NW,WASHINGTON,DC,20011.0,18S UJ 25683 14197,38.95940519,-77.01185786,Chillum,,2102.0,002102 1001,Ward 4,3385.0,-77.01222358087122,38.95920474764204,NW
2,0,Hot Water Rad,Y,1.0,9,4,1926.0,2011.0,1963,2.25,1996-08-12 00:00:00,381000.0,Q,1,1988.0,1,2.5 Story Fin,Row End,Very Good,Good,Common Brick,Built Up,Hardwood,1.0,2,11,3391,2018-07-22 18:01:43,Residential,,,4421 GREENWICH PARKWAY NW,WASHINGTON,DC,20007.0,18S UJ 19448 09064,38.91192011,-77.08241592,Foxhall,,802.0,000802 2011,Ward 3,1350.0,-77.08298432149398,38.91216600557645,NW
1,0,Hot Water Rad,N,1.0,8,3,1928.0,,1943,2.0,2004-09-01 00:00:00,,U,1,1320.0,1,2 Story,Row Inside,Average,Average,Common Brick,Built Up,Hardwood,1.0,0,11,2207,2018-07-22 18:01:43,Residential,,,1321 QUEEN STREET NE,WASHINGTON,DC,20002.0,18S UJ 27993 08145,38.90536267,-76.98368627,Trinidad,052 B Trinidad,8802.0,008802 1000,Ward 5,4061.0,-76.98396048235598,38.904646598026225,NE
3,2,Warm Cool,Y,1.0,10,5,1959.0,2008.0,1990,3.25,2012-04-19 00:00:00,,U,1,4872.0,1,3.5 Story Fin,Row Inside,Superior,Good,Common Brick,Comp Shingle,Hardwood,1.0,2,11,2880,2018-07-22 18:01:43,Residential,,,3024 DUMBARTON STREET NW,WASHINGTON,DC,20007.0,18S UJ 21352 08530,38.90749861,-77.06033592,Georgetown,025 G Georgetown,100.0,000100 4002,Ward 2,1233.0,-77.06012343240283,38.90717973342072,NW
5,1,Forced Air,Y,1.0,10,5,1941.0,2006.0,1983,2.5,2011-01-26 00:00:00,2162500.0,Q,1,3439.0,1,2.5 Story Fin,Single,Superior,Very Good,Common Brick,Slate,Hardwood,1.0,2,12,10719,2018-07-22 18:01:43,Residential,,,3807 FORDHAM ROAD NW,WASHINGTON,DC,20016.0,18S UJ 18098 12193,38.93982058,-77.09880752,Spring Valley,050 B Spring Valley,901.0,000901 2021,Ward 3,1477.0,-77.09792101743108,38.94051630974845,NW
1,0,Forced Air,Y,,4,1,1938.0,1973.0,1938,,2018-05-01 00:00:00,265000.0,Q,3,,1,,,,,,,,,0,17,599,2018-07-22 18:01:38,Condominium,1071.0,753.0,,,,20016.0,,38.9295415,-77.07581747,Observatory Circle,,701.0,,Ward 3,1815.0,-77.07581977858095,38.92954895562696,NW
2,1,Hot Water Rad,N,1.0,7,3,1922.0,2011.0,1966,2.0,,,U,1,1824.0,1,2 Story,Semi-Detached,Very Good,Good,Wood Siding,Metal- Sms,Hardwood,1.0,1,13,3900,2018-07-22 18:01:43,Residential,,,3938 MORRISON STREET NW,WASHINGTON,DC,20015.0,18S UJ 19829 14813,38.96377513,-77.07954245,Chevy Chase,011 A Chevy Chase,1100.0,001100 1008,Ward 3,1748.0,-77.07882192744484,38.963685234713225,NW
1,0,Hot Water Rad,Y,,3,1,1934.0,,1934,,2012-04-06 00:00:00,395000.0,Q,1,,1,,,,,,,,,1,16,301,2018-07-22 18:01:38,Condominium,2292.0,819.0,,,,20002.0,,38.89156324,-77.00286835,Capitol Hill,009 C Capitol Hill,8200.0,,Ward 6,758.0,-77.00287062446179,38.8915706961838,NE
1,0,Hot Water Rad,N,,3,1,1942.0,,1942,,2008-05-28 00:00:00,390000.0,U,1,,1,,,,,,,,,0,17,429,2018-07-22 18:01:38,Condominium,2396.0,913.0,,,,20007.0,,38.909759305,-77.05417157,Georgetown,025 H Georgetown,100.0,,Ward 2,1264.0,-77.05417386696527,38.90976675859151,NW
1,0,Ht Pump,Y,,3,1,2013.0,,2013,,2014-04-02 00:00:00,259000.0,U,3,,1,,,,,,,,,0,16,295,2018-07-22 18:01:38,Condominium,4141.0,492.0,,,,20002.0,,38.89833831,-76.97718552,Old City 1,039 G Old City 1,7901.0,,Ward 6,4513.0,-76.9771877907327,38.89834576802903,NE
2,0,Hot Water Rad,N,1.0,6,4,1920.0,2010.0,1972,3.0,2007-10-31 00:00:00,696000.0,Q,1,1794.0,1,3 Story,Row Inside,Very Good,Good,Common Brick,Built Up,Carpet,1.0,1,11,1694,2018-07-22 18:01:43,Residential,,,219 9TH STREET NE,WASHINGTON,DC,20002.0,18S UJ 27109 06735,38.89249383,-76.99352253,Old City 1,039 K Old City 1,8100.0,008100 2005,Ward 6,939.0,-76.99322213262845,38.89285729454068,NE
2,0,Forced Air,Y,,4,2,2017.0,,2017,,2017-11-09 00:00:00,1775400.0,Q,2,,1,,,,,,,,,0,17,232,2018-07-22 18:01:38,Condominium,5616.0,1731.0,,,,20037.0,,38.90425803,-77.05059062000002,Central-tri 1,,5500.0,,Ward 2,37.0,-77.05059291932706,38.90426548175433,NW
1,0,Warm Cool,Y,1.0,7,3,1950.0,,1960,1.0,,,U,1,1155.0,1,1 Story,Single,Above Average,Average,Common Brick,Comp Shingle,Hardwood,1.0,1,12,4950,2018-07-22 18:01:43,Residential,,,1334 ASPEN STREET NW,WASHINGTON,DC,20012.0,18S UJ 23921 15647,38.97211343,-77.03255325,Brightwood,006 A Brightwood,1804.0,001804 1002,Ward 4,2783.0,-77.03230848969667,38.97182443407886,NW
2,1,Forced Air,Y,1.0,7,4,1979.0,,1985,2.0,,,U,1,1188.0,1,2 Story,Semi-Detached,Above Average,Average,Vinyl Siding,Comp Shingle,Hardwood,1.0,0,13,3000,2018-07-22 18:01:43,Residential,,,4416 7TH STREET NE,WASHINGTON,DC,20017.0,18S UJ 26946 12391,38.94339688,-76.99683209,Brookland,007 C Brookland,9504.0,009504 2006,Ward 5,3811.0,-76.9975114803148,38.944223125083695,NE
2,0,Hot Water Rad,N,1.0,8,4,1926.0,,1960,2.0,2017-07-10 00:00:00,508725.0,U,2,1858.0,1,2 Story,Single,Good Quality,Average,Wood Siding,Comp Shingle,Hardwood,1.0,1,12,6370,2018-07-22 18:01:43,Residential,,,1369 HAMILTON STREET NW,WASHINGTON,DC,20011.0,18S UJ 23868 13541,38.95313636,-77.03261923,16th Street Heights,049 B 16th Street Heights,2002.0,002002 3005,Ward 4,2804.0,-77.03151818291714,38.95345993007342,NW
2,0,Ht Pump,Y,,4,2,1910.0,2006.0,1919,,2015-09-25 00:00:00,588000.0,Q,3,,1,,,,,,,,,0,16,507,2018-07-22 18:01:38,Condominium,1874.0,954.0,,,,20009.0,,38.923965685,-77.03369591,Columbia Heights,015 A Columbia Heights,3700.0,,Ward 1,2665.0,-77.03369819670041,38.923973143442005,NW
3,1,Warm Cool,Y,1.0,8,3,1941.0,2006.0,1972,2.0,2014-06-30 00:00:00,,U,4,1956.0,1,2 Story,Single,Very Good,Good,Common Brick,Slate,Hardwood,1.0,1,12,6786,2018-07-22 18:01:43,Residential,,,2841 NORTHAMPTON STREET NW,WASHINGTON,DC,20015.0,18S UJ 21648 15065,38.96641177,-77.05862495,Chevy Chase,011 E Chevy Chase,1500.0,001500 1033,Ward 4,2315.0,-77.0582467996717,38.96692540104798,NW
2,1,Warm Cool,Y,,6,3,1979.0,,1979,,1999-06-10 00:00:00,118000.0,Q,1,,1,,,,,,,,,0,16,3240,2018-07-22 18:01:38,Condominium,3032.0,1920.0,,,,20018.0,,38.92593807,-76.96284164,Fort Lincoln,,9000.0,,Ward 5,4326.0,-76.96284390490514,38.92594552939342,NE
4,1,Hot Water Rad,Y,1.0,13,5,1911.0,2009.0,1978,2.5,2012-06-29 00:00:00,1310000.0,Q,1,3680.0,1,2.5 Story Fin,Single,Excellent,Good,Wood Siding,Slate,Hardwood,1.0,2,12,6920,2018-07-22 18:01:43,Residential,,,3818 1/2 HUNTINGTON STREET NW,WASHINGTON,DC,20015.0,18S UJ 20065 14111,38.95749651,-77.07663076,Chevy Chase,011 A Chevy Chase,1100.0,001100 4001,Ward 3,1852.0,-77.07636046667132,38.95737408265798,NW
1,0,Ht Pump,Y,,5,2,1942.0,1982.0,1942,,1994-07-06 00:00:00,160000.0,Q,1,,1,,,,,,,,,0,16,1721,2018-07-22 18:01:38,Condominium,1066.0,1293.0,,,,20016.0,,38.93647738,-77.07636626,Cleveland Park,,1002.0,,Ward 3,1820.0,-77.07636855976237,38.93648483919923,NW
1,0,Ht Pump,Y,,5,2,1940.0,,1940,,,,U,1,,1,,,,,,,,,0,16,1187,2018-07-22 18:01:38,Condominium,1279.0,645.0,,,,20020.0,,38.86444768,-76.95130589,Hillcrest,028 C Hillcrest,7603.0,,Ward 7,5673.0,-76.95130815180231,38.86445546230031,SE
2,0,Hot Water Rad,N,2.0,7,4,1948.0,1978.0,1958,2.0,2008-07-03 00:00:00,,U,1,1178.0,1,2 Story,Row End,Average,Average,Common Brick,Comp Shingle,Hardwood,2.0,0,24,2712,2018-07-22 18:01:43,Residential,,,4320 TEXAS AVENUE SE,WASHINGTON,DC,20019.0,18S UJ 31445 05504,38.88224391,-76.94324596,Fort Dupont Park,022 B Fort Dupont Park,7703.0,007703 2007,Ward 7,5398.0,-76.9429826698659,38.88339779824871,SE
1,1,Hot Water Rad,Y,1.0,7,3,1928.0,,1961,2.0,2001-10-10 00:00:00,642000.0,Q,1,1752.0,1,2 Story,Single,Very Good,Average,Common Brick,Comp Shingle,Hardwood,1.0,1,12,16652,2018-07-22 18:01:43,Residential,,,3056 PORTER STREET NW,WASHINGTON,DC,20008.0,18S UJ 21122 11807,38.93696433,-77.06383794,Cleveland Park,,600.0,000600 4012,Ward 3,2067.0,-77.06348304417563,38.93651284458032,NW
1,0,Hot Water Rad,N,1.0,4,2,1914.0,2013.0,1957,2.0,2011-07-29 00:00:00,260000.0,Q,1,832.0,1,2 Story,Row Inside,Above Average,Average,Common Brick,Metal- Sms,Hardwood/Carp,1.0,0,11,732,2018-07-22 18:01:43,Residential,,,15 16TH STREET NE,WASHINGTON,DC,20002.0,18S UJ 28103 06477,38.89036025,-76.98200738,Old City 1,039 G Old City 1,8002.0,008002 1013,Ward 6,1084.0,-76.98182181694365,38.890489905039246,NE
3,1,Forced Air,Y,4.0,9,4,1905.0,1965.0,1970,3.0,2007-02-23 00:00:00,850000.0,Q,1,2446.0,1,3 Story,Row Inside,Excellent,Average,Common Brick,Built Up,Hardwood,4.0,1,24,1917,2018-07-22 18:01:43,Residential,,,2731 ONTARIO ROAD NW,WASHINGTON,DC,20009.0,18S UJ 23101 10450,38.92514957,-77.04067197,Mt. Pleasant,036 B Mt. Pleasant,3900.0,003900 3002,Ward 1,2581.0,-77.04017659576776,38.925175933823326,NW
2,0,Ht Pump,Y,,4,1,2007.0,,2007,,2015-10-30 00:00:00,,U,3,,1,,,,,,,,,0,16,424,2018-07-22 18:01:38,Condominium,2883.0,920.0,,,,20009.0,,38.91950974,-77.03317817,Old City 2,040 F Old City 2,4300.0,,Ward 1,202.0,-77.03318045537462,38.91951719697623,NW
2,0,Forced Air,Y,1.0,6,2,1930.0,2009.0,1983,2.0,2014-06-05 00:00:00,740000.0,Q,5,992.0,1,2 Story,Semi-Detached,Superior,Good,Common Brick,Slate,Hardwood,1.0,0,13,2767,2018-07-22 18:01:43,Residential,,,5043 DANA PLACE NW,WASHINGTON,DC,20016.0,18S UJ 17862 10609,38.92550603,-77.10111214,Kent,030 C Kent,902.0,000902 1007,Ward 3,1419.0,-77.10189195165785,38.926184780603215,NW
1,1,Forced Air,N,1.0,8,4,1929.0,,1943,2.0,1996-10-16 00:00:00,,U,1,1340.0,1,2 Story,Row Inside,Average,Average,Common Brick,Metal- Sms,Hardwood,1.0,0,11,2380,2018-07-22 18:01:43,Residential,,,435 JEFFERSON STREET NW,WASHINGTON,DC,20011.0,18S UJ 25058 13788,38.9556043,-77.01895629,Petworth,042 C Petworth,2102.0,002102 6004,Ward 4,3259.0,-77.01889859447459,38.95575804155232,NW
1,1,Hot Water Rad,N,1.0,6,3,1910.0,1976.0,1960,2.0,,,U,1,1270.0,1,2 Story,Row Inside,Good Quality,Average,Common Brick,Metal- Sms,Hardwood,1.0,0,11,1150,2018-07-22 18:01:43,Residential,,,717 G STREET NE,WASHINGTON,DC,20002.0,18S UJ 26958 07431,38.89872699,-76.99543619,Old City 1,039 J Old City 1,8302.0,008302 1003,Ward 6,891.0,-76.99543847300369,38.89805441962977,NE
1,1,Warm Cool,Y,1.0,6,4,1910.0,2007.0,1964,2.0,2017-10-04 00:00:00,422320.0,U,2,1598.0,1,2 Story,Row End,Average,Average,Common Brick,Built Up,Hardwood,1.0,0,11,1205,2018-07-22 18:01:43,Residential,,,1103 MORSE STREET NE,WASHINGTON,DC,20002.0,18S UJ 27268 08066,38.9045045,-76.99202095,Trinidad,052 A Trinidad,8802.0,008802 3005,Ward 5,4070.0,-76.9910677335181,38.903877203056496,NE
1,0,Hot Water Rad,N,,4,2,1911.0,1983.0,1911,,2017-03-02 00:00:00,365000.0,Q,3,,1,,,,,,,,,0,16,162,2018-07-22 18:01:38,Condominium,1254.0,683.0,,,,20001.0,,38.91671470000001,-77.01097751,Ledroit Park,031 B Ledroit Park,3301.0,,Ward 5,3112.0,-77.01097979909581,38.91672215478633,NW
2,1,Forced Air,Y,1.0,8,3,1910.0,2002.0,1972,3.0,2014-07-18 00:00:00,770000.0,Q,7,1473.0,1,3 Story,Row Inside,Very Good,Good,Common Brick,Neopren,Wood Floor,1.0,2,11,754,2018-07-22 18:01:43,Residential,,,718 13TH STREET NE,WASHINGTON,DC,20002.0,18S UJ 27558 07523,38.89967492,-76.98854714,Old City 1,039 J Old City 1,8402.0,008402 1003,Ward 6,1004.0,-76.98918499702623,38.8994328470852,NE
2,0,Ht Pump,Y,,5,2,1989.0,2005.0,1989,,2006-12-14 00:00:00,620000.0,Q,1,,1,,,,,,,,,0,17,379,2018-07-22 18:01:38,Condominium,1658.0,1004.0,,,,20016.0,,38.93606952,-77.07394579000002,Cleveland Park,,1002.0,,Ward 3,1819.0,-77.0739480932975,38.93607697723925,NW
1,0,Forced Air,N,,4,2,1926.0,,1926,,1998-07-09 00:00:00,,U,1,,1,,,,,,,,,0,16,427,2018-07-22 18:01:38,Condominium,3027.0,763.0,,,,20017.0,,38.936557625000006,-76.98956598999997,Brookland,007 C Brookland,9504.0,,Ward 5,3925.0,-76.98956827869733,38.9365650895001,NE
1,0,Forced Air,Y,,3,1,2005.0,,2005,,2016-01-08 00:00:00,354000.0,Q,4,,1,,,,,,,,,0,17,141,2018-07-22 18:01:38,Condominium,1927.0,578.0,,,,20001.0,,38.919049165,-77.024239395,Columbia Heights,015 E Columbia Heights,3500.0,,Ward 1,2873.0,-77.02424168137986,38.91905695604232,NW
4,0,Hot Water Rad,N,4.0,16,4,1928.0,2000.0,1964,2.0,2018-05-08 00:00:00,690000.0,Q,4,3106.0,1,2 Story,Multi,Average,Average,Common Brick,Built Up,Hardwood,4.0,0,23,2721,2018-07-22 18:01:43,Residential,,,1645 WEST VIRGINIA AVENUE NE,WASHINGTON,DC,20002.0,18S UJ 27723 08574,38.90916964,-76.98691219999998,Trinidad,052 A Trinidad,8804.0,008804 1000,Ward 5,4054.0,-76.98681341196688,38.90852299291209,NE
1,0,Warm Cool,Y,,3,1,1951.0,1978.0,1951,,1987-12-14 00:00:00,,U,1,,1,,,,,,,,,0,17,342,2018-07-22 18:01:38,Condominium,1096.0,702.0,,,,20008.0,,38.93793523,-77.05834086,Forest Hills,,1302.0,,Ward 3,2226.0,-77.05834315723256,38.93794269070036,NW
1,0,Hot Water Rad,N,1.0,7,3,1927.0,,1954,2.0,2000-03-09 00:00:00,98000.0,Q,1,1320.0,1,2 Story,Semi-Detached,Average,Average,Common Brick,Typical,Hardwood/Carp,1.0,0,13,2206,2018-07-22 18:01:43,Residential,,,634 EDGEWOOD STREET NE,WASHINGTON,DC,20017.0,18S UJ 26887 10342,38.92492635,-76.99698628,Brookland,007 E Brookland,9204.0,009204 1001,Ward 5,3637.0,-76.99755930003877,38.92521408639297,NE
1,0,Hot Water Rad,N,1.0,6,3,1925.0,1959.0,1947,1.0,1996-10-08 00:00:00,,U,1,912.0,1,1 Story,Single,Fair Quality,Average,Wood Siding,Comp Shingle,Hardwood,1.0,0,12,5500,2018-07-22 18:01:43,Residential,,,1107 51ST PLACE NE,WASHINGTON,DC,20019.0,18S UJ 32884 08007,38.90506335,-76.92727407,Deanwood,018 B Deanwood,7806.0,007806 1011,Ward 7,5201.0,-76.92703582658831,38.90537015270563,NE
1,0,Warm Cool,Y,1.0,6,3,1949.0,,1959,2.0,2016-12-16 00:00:00,,U,2,1120.0,1,2 Story,Row End,Average,Average,Common Brick,Built Up,Hardwood,1.0,0,11,2547,2018-07-22 18:01:43,Residential,,,1006 15TH STREET SE,WASHINGTON,DC,20003.0,18S UJ 27950 05118,38.87808825,-76.98343008,Old City 1,039 D Old City 1,7100.0,007100 1001,Ward 6,1079.0,-76.98283638066995,38.87823271685848,SE
1,0,Forced Air,Y,,5,2,1964.0,1987.0,1964,,2011-06-22 00:00:00,36000.0,U,1,,1,,,,,,,,,0,16,1604,2018-07-22 18:01:38,Condominium,1286.0,785.0,,,,20032.0,,38.84021226,-76.99975777,Congress Heights,016 B Congress Heights,9804.0,,Ward 8,5970.0,-76.99976004167549,38.84021969886399,SE
1,0,Forced Air,Y,,3,1,1900.0,1978.0,1900,,2007-10-01 00:00:00,370000.0,Q,1,,1,,,,,,,,,0,17,137,2018-07-22 18:01:38,Condominium,2138.0,657.0,,,,20036.0,,38.910523615,-77.03998178500002,Old City 2,040 D Old City 2,5301.0,,Ward 2,156.0,-77.03998407205833,38.91053107239987,NW
1,1,Hot Water Rad,N,1.0,6,3,1925.0,1992.0,1954,2.0,1997-04-16 00:00:00,,U,1,1054.0,1,2 Story,Semi-Detached,Above Average,Average,Stone,Metal- Sms,Hardwood,1.0,0,13,1409,2018-07-22 18:01:43,Residential,,,509 RITTENHOUSE STREET NW,WASHINGTON,DC,20011.0,18S UJ 24956 14847,38.96512002,-77.02040047,Brightwood,006 C Brightwood,1901.0,001901 3012,Ward 4,3199.0,-77.02113602455624,38.965549934557174,NW
4,0,Hot Water Rad,N,4.0,16,6,1900.0,,1954,2.0,2008-02-26 00:00:00,630130.0,U,1,2888.0,1,2 Story,Multi,Average,Average,Common Brick,Built Up,Wood Floor,4.0,0,23,2042,2018-07-22 18:01:43,Residential,,,1625 12TH STREET NW,WASHINGTON,DC,20009.0,18S UJ 24184 08958,38.91193335,-77.02779486,Old City 2,040 G Old City 2,5001.0,005001 1005,Ward 2,309.0,-77.02761332967438,38.911823055068886,NW
2,0,Warm Cool,Y,1.0,7,4,1890.0,,1972,3.0,2018-04-03 00:00:00,,U,2,2313.0,1,3 Story,Row End,Very Good,Average,Common Brick,Built Up,Hardwood,1.0,1,11,1500,2018-07-22 18:01:43,Residential,,,1826 16TH STREET NW,WASHINGTON,DC,20009.0,18S UJ 23402 09290,38.91475836,-77.03689854,Old City 2,040 D Old City 2,4201.0,004201 1006,Ward 2,177.0,-77.03722060883345,38.91503291516594,NW
2,0,Ht Pump,Y,,4,2,1916.0,2015.0,1919,,2015-06-24 00:00:00,565000.0,Q,2,,1,,,,,,,,,0,16,368,2018-07-22 18:01:38,Condominium,5160.0,732.0,,,,20009.0,,38.92516848,-77.040174305,Mt. Pleasant,036 B Mt. Pleasant,3900.0,,Ward 1,2581.0,-77.04017659576776,38.925175933823326,NW
2,1,Forced Air,Y,1.0,6,3,1927.0,2010.0,1964,2.0,2015-09-16 00:00:00,569000.0,Q,8,1230.0,1,2 Story,Single,Average,Very Good,Vinyl Siding,Comp Shingle,Hardwood/Carp,1.0,0,12,2594,2018-07-22 18:01:43,Residential,,,3429 SOUTH DAKOTA AVENUE NE,WASHINGTON,DC,20018.0,18S UJ 28996 11180,38.93289002,-76.97288564,Woodridge,056 A Woodridge,9400.0,009400 3022,Ward 5,4245.0,-76.97254743064659,38.9327721463454,NE
1,0,Forced Air,N,1.0,0,0,1925.0,,1954,2.0,2016-03-30 00:00:00,470000.0,Q,2,1294.0,1,2 Story,Row Inside,Average,Average,Common Brick,Built Up,Hardwood,1.0,0,11,1298,2018-07-22 18:01:43,Residential,,,1274 OATES STREET NE,WASHINGTON,DC,20002.0,18S UJ 27789 08078,38.90471572,-76.98602725,Trinidad,052 A Trinidad,8802.0,008802 4004,Ward 5,4060.0,-76.98638885377413,38.90538997692753,NE
4,0,Hot Water Rad,N,4.0,20,12,1938.0,,1947,2.0,1996-02-15 00:00:00,,U,1,2880.0,1,2 Story,Multi,Above Average,Average,Common Brick,Metal- Sms,Hardwood,4.0,0,23,4200,2018-07-22 18:01:43,Residential,,,2016 FENDALL STREET SE,WASHINGTON,DC,20020.0,18S UJ 28235 03581,38.86430536,-76.97975279,Randle Heights,043 B Randle Heights,7504.0,007504 1003,Ward 8,5761.0,-76.97973143662566,38.864347717038775,SE
1,0,Forced Air,Y,,3,1,1926.0,1984.0,1926,,2000-10-13 00:00:00,69900.0,Q,1,,1,,,,,,,,,0,17,229,2018-07-22 18:01:38,Condominium,1228.0,576.0,,,,20010.0,,38.93287013,-77.038012375,Mt. Pleasant,036 A Mt. Pleasant,2701.0,,Ward 1,2609.0,-77.03801467354151,38.932877591481905,NW
1,0,Hot Water Rad,N,1.0,8,3,1943.0,,1943,2.0,2004-08-13 00:00:00,,U,1,1190.0,1,2 Story,Single,Average,Poor,Common Brick,Built Up,Hardwood,1.0,0,13,3084,2018-07-22 18:01:43,Residential,,,4265 EDSON PLACE NE,WASHINGTON,DC,20019.0,18S UJ 31732 07092,38.89660055,-76.94033384,Deanwood,018 A Deanwood,7803.0,007803 4002,Ward 7,5090.0,-76.94116825595222,38.89632017168325,NE
2,0,Warm Cool,Y,,5,2,1986.0,,1986,,1999-03-01 00:00:00,,U,1,,1,,,,,,,,,0,16,466,2018-07-22 18:01:38,Condominium,2390.0,928.0,,,,20007.0,,38.905729705,-77.056573575,Georgetown,025 J Georgetown,100.0,,Ward 2,1214.0,-77.05657586694403,38.90573715757482,NW
2,1,Warm Cool,Y,1.0,9,4,1951.0,,1966,2.5,,,U,1,2353.0,1,2.5 Story Fin,Single,Good Quality,Average,Common Brick,Comp Shingle,Hardwood,1.0,1,12,7500,2018-07-22 18:01:43,Residential,,,3325 N STREET SE,WASHINGTON,DC,20019.0,18S UJ 30163 04660,38.87439765,-76.95781629999998,Hillcrest,028 B Hillcrest,9901.0,009901 2010,Ward 7,5510.0,-76.95970630401058,38.87400763982761,SE
4,1,Hot Water Rad,Y,1.0,10,7,1920.0,2016.0,1988,2.5,2015-05-05 00:00:00,1625000.0,Q,4,2604.0,1,2.5 Story Fin,Single,Excellent,Very Good,Shingle,Comp Shingle,Hardwood,2.0,3,12,5143,2018-07-22 18:01:43,Residential,,,3724 INGOMAR STREET NW,WASHINGTON,DC,20015.0,18S UJ 20288 14180,38.95816297,-77.07407925,Chevy Chase,011 A Chevy Chase,1100.0,001100 3003,Ward 3,1876.0,-77.07245664330122,38.95751249107745,NW
3,0,Forced Air,Y,1.0,8,4,1913.0,,1964,2.0,,,U,1,1366.0,1,2 Story,Row End,Average,Good,Common Brick,Metal- Sms,Hardwood,1.0,1,11,1424,2018-07-22 18:01:43,Residential,,,1402 PERRY PLACE NW,WASHINGTON,DC,20010.0,18S UJ 23780 11663,38.93620451,-77.03314689,Columbia Heights,015 A Columbia Heights,2801.0,002801 2002,Ward 1,2688.0,-77.03374012560259,38.93602899787061,NW
1,0,Hot Water Rad,N,1.0,6,3,1925.0,,1961,2.0,2006-05-16 00:00:00,,U,1,1080.0,1,2 Story,Row Inside,Average,Average,Common Brick,Metal- Sms,Hardwood,1.0,0,11,1890,2018-07-22 18:01:43,Residential,,,5228 7TH STREET NW,WASHINGTON,DC,20011.0,18S UJ 24752 13575,38.95361989,-77.02242790000003,Petworth,042 B Petworth,2101.0,002101 3002,Ward 4,3150.0,-77.02304770174018,38.95360912379847,NW
1,1,Hot Water Rad,N,1.0,6,3,1905.0,,1954,2.0,2017-06-05 00:00:00,500000.0,U,2,1802.0,1,2 Story,Single,Average,Average,Vinyl Siding,Metal- Sms,Wood Floor,1.0,0,12,12000,2018-07-22 18:01:43,Residential,,,2335 HIGH STREET SE,WASHINGTON,DC,20020.0,18S UJ 27551 03316,38.86178088,-76.98757385,Anacostia,002 A Anacostia,7503.0,007503 2004,Ward 8,5804.0,-76.98766328581178,38.86195858223272,SE
1,0,Ht Pump,Y,,4,1,1950.0,1986.0,1950,,,,U,1,,1,,,,,,,,,0,17,203,2018-07-22 18:01:38,Condominium,1073.0,674.0,,,,20016.0,,38.9375777,-77.07307429,Cleveland Park,,600.0,,Ward 3,1908.0,-77.07307659182574,38.93758515537173,NW
1,1,Forced Air,N,1.0,6,3,1953.0,,1953,2.0,,,U,1,1088.0,1,2 Story,Semi-Detached,Average,Average,Common Brick,Built Up,Hardwood,1.0,0,13,1936,2018-07-22 18:01:43,Residential,,,816 OGLETHORPE STREET NE,WASHINGTON,DC,20011.0,18S UJ 27213 14059,38.95846942,-76.99417141,Riggs Park,,9507.0,009507 1007,Ward 4,3743.0,-76.99390410928518,38.95851614820727,NE
3,1,Warm Cool,Y,1.0,7,4,1981.0,,1987,3.0,2004-04-07 00:00:00,815000.0,Q,1,2256.0,1,3 Story,Row Inside,Very Good,Average,Brick Veneer,Comp Shingle,Hardwood/Carp,1.0,1,11,1560,2018-07-22 18:01:43,Residential,,,3942 GEORGETOWN COURT NW,WASHINGTON,DC,20007.0,18S UJ 19978 09160,38.91289570000001,-77.07633044,Burleith,008 B Burleith,300.0,000300 3006,Ward 2,1320.0,-77.07729657267994,38.91595936217581,NW
2,0,Hot Water Rad,N,2.0,8,4,1954.0,,1963,2.0,2012-09-21 00:00:00,,U,1,1152.0,1,2 Story,Multi,Average,Average,Common Brick,Built Up,Hardwood,2.0,0,23,2050,2018-07-22 18:01:43,Residential,,,130 TAUSSIG PLACE NE,WASHINGTON,DC,20011.0,18S UJ 26251 12216,38.94168093,-77.00479819,Brookland,007 A Brookland,9501.0,009501 3007,Ward 5,3665.0,-77.00508781449588,38.9419910449719,NE
1,1,Hot Water Rad,N,1.0,8,3,1924.0,,1954,2.0,2004-12-07 00:00:00,,U,1,1280.0,1,2 Story,Row Inside,Average,Average,Common Brick,Comp Shingle,Hardwood,1.0,0,11,1557,2018-07-22 18:01:43,Residential,,,4711 KANSAS AVENUE NW,WASHINGTON,DC,20011.0,18S UJ 24868 12967,38.94816809,-77.02093377,Petworth,042 B Petworth,2201.0,002201 2000,Ward 4,3217.0,-77.02030946108893,38.947901511430935,NW
2,0,Forced Air,N,1.0,6,3,1927.0,,1964,2.0,2002-05-31 00:00:00,179950.0,Q,1,1352.0,1,2 Story,Row Inside,Average,Average,Common Brick,Metal- Sms,Hardwood,1.0,0,11,1545,2018-07-22 18:01:43,Residential,,,4713 4TH STREET NW,WASHINGTON,DC,20011.0,18S UJ 25195 12930,38.94790629,-77.01715948,Petworth,042 C Petworth,2202.0,002202 2003,Ward 4,3305.0,-77.01674536151975,38.948051666901435,NW
1,1,Forced Air,Y,,4,2,1967.0,1987.0,1967,,2016-04-14 00:00:00,538250.0,Q,3,,1,,,,,,,,,0,17,190,2018-07-22 18:01:38,Condominium,1040.0,920.0,,,,20037.0,,38.90643337,-77.04783872,Central-tri 1,,5500.0,,Ward 2,70.0,-77.04784102000431,38.90644082183445,NW
1,0,Hot Water Rad,N,1.0,7,3,1917.0,,1954,2.0,,,U,1,1360.0,1,2 Story,Single,Average,Average,Common Brick,Slate,Hardwood,1.0,0,12,3245,2018-07-22 18:01:43,Residential,,,2337 CHESTER STREET SE,WASHINGTON,DC,20020.0,18S UJ 27480 03377,38.86231568,-76.98840554,Anacostia,002 A Anacostia,7503.0,007503 2003,Ward 8,5801.0,-76.98865170930583,38.86289722112329,SE
2,1,Warm Cool,Y,1.0,7,3,1952.0,1984.0,1952,1.0,,,U,1,1328.0,1,1 Story,Semi-Detached,Average,Average,Common Brick,Typical,Hardwood,1.0,0,13,1980,2018-07-22 18:01:43,Residential,,,6521 NORTH CAPITOL STREET NE,WASHINGTON,DC,20012.0,18S UJ 25971 15237,38.96883233,-77.00880139,Takoma Park,,9505.0,009505 2003,Ward 4,3728.0,-77.00880367591962,38.96860672070178,NE
3,0,Hot Water Rad,N,2.0,8,5,1910.0,1975.0,1964,2.0,2004-01-02 00:00:00,240000.0,Q,1,1368.0,1,2 Story,Semi-Detached,Average,Average,Shingle,Metal- Sms,Hardwood,2.0,0,24,2098,2018-07-22 18:01:43,Residential,,,5421 ILLINOIS AVENUE NW,WASHINGTON,DC,20011.0,18S UJ 24369 13838,38.95591515,-77.02692053,Petworth,042 B Petworth,2101.0,002101 5004,Ward 4,2995.0,-77.02642652578696,38.95580813208385,NW
3,1,Forced Air,Y,1.0,11,6,2009.0,,2012,4.0,2018-04-23 00:00:00,495000.0,Q,2,3056.0,1,3 Story,Default,Above Average,Good,Common Brick,Comp Shingle,Hardwood/Carp,1.0,0,12,5389,2018-07-22 18:01:43,Residential,,,5530 CALL PLACE SE,WASHINGTON,DC,20019.0,18S UJ 33323 05614,38.88359718,-76.92164186,Marshall Heights,033 A Marshall Heights,9905.0,009905 2005,Ward 7,5293.0,-76.9227207636563,38.883927796431706,SE
2,0,Forced Air,Y,1.0,5,2,1870.0,2005.0,1967,2.0,2014-06-26 00:00:00,,U,5,1194.0,1,2 Story,Row Inside,Above Average,Good,Common Brick,Built Up,Hardwood,1.0,0,11,1517,2018-07-22 18:01:43,Residential,,,1438 T STREET NW,WASHINGTON,DC,20009.0,18S UJ 23697 09348,38.91534646,-77.03351886,Old City 2,040 E Old City 2,4300.0,004300 2004,Ward 2,206.0,-77.033396819703,38.91496587107685,NW
5,1,Hot Water Rad,N,2.0,9,8,1900.0,,1970,3.0,2000-11-20 00:00:00,,U,1,3370.0,1,3 Story,Row End,Excellent,Average,Common Brick,Built Up,Hardwood,2.0,0,24,1964,2018-07-22 18:01:43,Residential,,,1623 R STREET NW,WASHINGTON,DC,20009.0,18S UJ 23337 09075,38.91281396,-77.03759649999998,Old City 2,040 D Old City 2,5301.0,005301 1002,Ward 2,178.0,-77.03766981136681,38.913217043146695,NW
1,0,Ht Pump,Y,,3,1,1989.0,2003.0,1989,,2005-06-20 00:00:00,420000.0,Q,1,,1,,,,,,,,,2,16,477,2018-07-22 18:01:38,Condominium,2642.0,690.0,,,,20005.0,,38.90754585,-77.02877323,Old City 2,040 C Old City 2,5002.0,,Ward 2,280.0,-77.0287755213432,38.90755330567546,NW
2,1,Forced Air,Y,1.0,7,3,1993.0,,1998,2.0,1993-07-12 00:00:00,106500.0,Q,1,1328.0,1,2 Story,Semi-Detached,Above Average,Average,Brick/Siding,Comp Shingle,Carpet,1.0,0,13,3210,2018-07-22 18:01:43,Residential,,,4637 HANNA PLACE SE,WASHINGTON,DC,20019.0,18S UJ 32300 05178,38.87947309,-76.93331637,Fort Dupont Park,022 C Fort Dupont Park,7707.0,007707 1005,Ward 7,5359.0,-76.93416823913509,38.87947809685985,SE
2,1,Forced Air,Y,1.0,6,3,1940.0,,1954,2.0,2018-02-07 00:00:00,411500.0,Q,2,1024.0,1,2 Story,Row Inside,Average,Average,Common Brick,Built Up,Wood Floor,1.0,0,11,1280,2018-07-22 18:01:43,Residential,,,1344 DOWNING STREET NE,WASHINGTON,DC,20018.0,18S UJ 27820 09836,38.92056076,-76.98610348,Brentwood,005 A Brentwood,9102.0,009102 2009,Ward 5,3952.0,-76.98712308211235,38.92044800906383,NE
2,1,Forced Air,Y,1.0,9,4,1900.0,1985.0,1963,2.0,2000-01-07 00:00:00,78750.0,U,1,2954.0,1,2 Story,Row End,Very Good,Good,Common Brick,Metal- Sms,Hardwood,1.0,2,11,3075,2018-07-22 18:01:43,Residential,,,613 SOUTH CAROLINA AVENUE SE,WASHINGTON,DC,20003.0,18S UJ 26715 05704,38.88312393,-76.99780279,Capitol Hill,009 A Capitol Hill,7000.0,007000 1000,Ward 6,876.0,-76.99713952615934,38.88308564381098,SE
1,0,Warm Cool,Y,1.0,4,2,1880.0,2002.0,1981,2.0,2008-09-26 00:00:00,650000.0,Q,1,576.0,1,2 Story,Row End,Superior,Good,Common Brick,Metal- Sms,Hardwood,1.0,1,11,465,2018-07-22 18:01:43,Residential,,,2 POMANDER WALK NW,WASHINGTON,DC,20007.0,18S UJ 20766 08755,38.90940827,-77.06714156,Georgetown,025 D Georgetown,202.0,000202 2004,Ward 2,1254.0,-77.0669781365792,38.909318660134026,NW
2,0,Warm Cool,Y,1.0,7,4,1965.0,,1975,1.0,2003-09-11 00:00:00,175000.0,Q,1,891.0,1,Split Foyer,Single,Above Average,Average,Common Brick,Comp Shingle,Hardwood,1.0,0,12,5000,2018-07-22 18:01:43,Residential,,,3020 P STREET SE,WASHINGTON,DC,20020.0,18S UJ 29653 04425,38.87218317,-76.9636327,Hillcrest,028 B Hillcrest,9901.0,009901 1009,Ward 7,5544.0,-76.96273152811409,38.87219062456683,SE
1,0,Hot Water Rad,N,1.0,6,3,1922.0,,1960,2.0,2004-01-16 00:00:00,239000.0,Q,1,1292.0,1,2 Story,Row End,Good Quality,Average,Common Brick,Metal- Sms,Wood Floor,1.0,0,11,2618,2018-07-22 18:01:43,Residential,,,1231 JEFFERSON STREET NW,WASHINGTON,DC,20011.0,18S UJ 24182 13780,38.95535072,-77.02906379999997,16th Street Heights,049 C 16th Street Heights,2002.0,002002 3000,Ward 4,2932.0,-77.02886938070276,38.95574409315861,NW
6,1,Forced Air,Y,4.0,11,7,1922.0,2013.0,1970,3.0,2013-06-17 00:00:00,936000.0,Q,1,2214.0,1,2 Story,Row Inside,Above Average,Good,Common Brick,Metal- Sms,Hardwood/Carp,4.0,3,24,1629,2018-07-22 18:01:43,Residential,,,1473 GIRARD STREET NW,WASHINGTON,DC,20009.0,18S UJ 23578 10480,38.92551294,-77.03517795,Columbia Heights,015 A Columbia Heights,3700.0,003700 2000,Ward 1,2669.0,-77.03514555408539,38.92616813210803,NW
1,1,Hot Water Rad,Y,2.0,6,3,1913.0,2005.0,1967,2.0,2006-04-27 00:00:00,950000.0,Q,1,1276.0,1,2 Story,Row Inside,Above Average,Good,Common Brick,Built Up,Hardwood,2.0,0,24,1403,2018-07-22 18:01:43,Residential,,,1734 SWANN STREET NW,WASHINGTON,DC,20009.0,18S UJ 23094 09289,38.91468827,-77.04045177,Old City 2,040 D Old City 2,4201.0,004201 2006,Ward 2,152.0,-77.04042907495098,38.914881109044266,NW
1,0,Forced Air,Y,,3,1,2002.0,,2002,,2018-04-20 00:00:00,19000.0,Q,3,,1,,,,,,,,,0,16,790,2018-07-22 18:01:38,Condominium,1482.0,635.0,,,,20020.0,,38.85298403,-76.964861015,Randle Heights,043 B Randle Heights,7502.0,,Ward 8,5720.0,-76.96486328023144,38.85299147596524,SE
1,0,Forced Air,Y,,4,2,1959.0,2007.0,1959,,2010-08-12 00:00:00,300000.0,Q,1,,1,,,,,,,,,0,17,354,2018-07-22 18:01:38,Condominium,2838.0,958.0,,,,20024.0,,38.88082098,-77.01427073,Southwest Waterfront,,10500.0,,Ward 6,540.0,-77.0142730131491,38.8808284329871,SW
1,1,Forced Air,N,1.0,6,3,1957.0,,1966,1.0,,,U,1,888.0,1,1 Story,Single,Average,Average,Common Brick,Comp Shingle,Hardwood,1.0,0,12,4000,2018-07-22 18:01:43,Residential,,,201 54TH STREET SE,WASHINGTON,DC,20019.0,18S UJ 33140 05837,38.88557054,-76.92379999,Marshall Heights,033 A Marshall Heights,9905.0,009905 1007,Ward 7,5304.0,-76.92516494307976,38.88554087350063,SE
3,1,Hot Water Rad,Y,1.0,8,4,1935.0,2013.0,1972,2.0,1999-06-08 00:00:00,525000.0,U,1,2514.0,1,2 Story,Single,Very Good,Good,Common Brick,Slate,Hardwood,1.0,2,12,4959,2018-07-22 18:01:43,Residential,,,3523 RUNNYMEDE PLACE NW,WASHINGTON,DC,20015.0,18S UJ 20484 15567,38.97070112,-77.07217509,Chevy Chase,011 B Chevy Chase,1401.0,001401 2000,Ward 3,2003.0,-77.07176865411739,38.970347826526506,NW
2,0,Warm Cool,Y,,4,2,1910.0,,1919,,2015-08-24 00:00:00,501500.0,Q,2,,1,,,,,,,,,0,16,488,2018-07-22 18:01:38,Condominium,1371.0,845.0,,,,20009.0,,38.92708187,-77.02854386,Columbia Heights,015 E Columbia Heights,3000.0,,Ward 1,2853.0,-77.02854615468503,38.92708932927631,NW
1,0,Ht Pump,Y,,3,1,1952.0,1980.0,1952,,,,U,1,,1,,,,,,,,,1,16,284,2018-07-22 18:01:38,Condominium,1042.0,478.0,,,,20037.0,,38.90643337,-77.04783872,Central-tri 1,,5500.0,,Ward 2,70.0,-77.04784102000431,38.90644082183445,NW
2,0,Forced Air,Y,,6,3,1994.0,,1994,,,,U,1,,1,,,,,,,,,0,16,2101,2018-07-22 18:01:38,Condominium,3033.0,1231.0,,,,20019.0,,38.90010958,-76.95084136,Lily Ponds,032 B Lily Ponds,9602.0,,Ward 7,5043.0,-76.95084361892722,38.90011703936007,NE
2,0,Forced Air,Y,,4,2,2008.0,,2008,,2013-03-04 00:00:00,635000.0,U,1,,1,,,,,,,,,0,17,13,2018-07-22 18:01:38,Condominium,2898.0,1105.0,,,,20001.0,,38.90314058,-77.01777614,Old City 2,040 B Old City 2,4701.0,,Ward 6,515.0,-77.01777842507026,38.90314803223472,NW
1,1,Hot Water Rad,N,1.0,6,2,1926.0,,1954,2.0,2017-03-30 00:00:00,,U,2,1444.0,1,2 Story,Row Inside,Average,Average,Common Brick,Built Up,Wood Floor,1.0,0,11,1663,2018-07-22 18:01:43,Residential,,,1317 WEST VIRGINIA AVENUE NE,WASHINGTON,DC,20002.0,18S UJ 27399 08225,38.90596527,-76.99056004,Trinidad,052 A Trinidad,8802.0,008802 3001,Ward 5,4064.0,-76.98978750568135,38.90545240429429,NE
3,0,Forced Air,Y,3.0,6,3,1915.0,2006.0,1969,2.5,2007-06-12 00:00:00,499000.0,Q,1,1810.0,1,2.5 Story Fin,Row Inside,Good Quality,Good,Common Brick,Built Up,Carpet,3.0,0,24,2000,2018-07-22 18:01:43,Residential,,,4416 GEORGIA AVENUE NW,WASHINGTON,DC,20011.0,18S UJ 24370 12591,38.94468064,-77.02658533,16th Street Heights,049 C 16th Street Heights,2501.0,002501 1011,Ward 4,2917.0,-77.02714933996295,38.94464461253785,NW
2,0,Forced Air,Y,1.0,8,4,1910.0,,1957,3.0,1978-01-01 00:00:00,,Q,1,3096.0,1,3 Story,Row Inside,Above Average,Average,Common Brick,Built Up,Hardwood/Carp,1.0,1,11,3008,2018-07-22 18:01:43,Residential,,,431 M STREET NW,WASHINGTON,DC,20001.0,18S UJ 25083 08267,38.90588564,-77.0172657,Old City 2,040 B Old City 2,4802.0,004802 1007,Ward 6,513.0,-77.01740852044293,38.906575565443504,NW
1,1,Forced Air,Y,,3,1,2011.0,,2011,,2011-12-20 00:00:00,460000.0,Q,1,,1,,,,,,,,,0,17,134,2018-07-22 18:01:38,Condominium,1401.0,642.0,,,,20008.0,,38.92725120000001,-77.05483775,Garfield,,502.0,,Ward 3,2107.0,-77.05484004684817,38.92725865975263,NW
2,0,Hot Water Rad,N,1.0,8,4,1937.0,,1943,2.0,,,U,1,1512.0,1,2 Story,Row Inside,Average,Average,Common Brick,Built Up,Hardwood,1.0,0,11,3150,2018-07-22 18:01:43,Residential,,,1515 OATES STREET NE,WASHINGTON,DC,20002.0,18S UJ 28061 07873,38.90292335,-76.98283854,Trinidad,052 B Trinidad,8802.0,008802 2000,Ward 5,4073.0,-76.9831050330733,38.90265366174813,NE
2,0,Warm Cool,Y,1.0,6,2,1983.0,1983.0,1986,2.0,1999-05-05 00:00:00,229000.0,Q,1,1792.0,1,2 Story,Row Inside,Average,Average,Common Brick,Metal- Sms,Wood Floor,1.0,0,11,1888,2018-07-22 18:01:43,Residential,,,1324 RIGGS STREET NW,WASHINGTON,DC,20009.0,18S UJ 23937 09101,38.91317154,-77.03067907,Old City 2,040 E Old City 2,5001.0,005001 2001,Ward 2,239.0,-77.03068270784686,38.91348127494207,NW
2,0,Forced Air,Y,1.0,6,2,1900.0,2005.0,1967,2.0,2011-12-23 00:00:00,,U,1,1504.0,1,2 Story,Row Inside,Above Average,Good,Common Brick,Metal- Sms,Hardwood,1.0,1,11,1190,2018-07-22 18:01:43,Residential,,,1386 E STREET NE,WASHINGTON,DC,20002.0,18S UJ 27785 07143,38.89629865,-76.98583259,Old City 1,039 F Old City 1,8001.0,008001 2012,Ward 6,1029.0,-76.98693120478241,38.89662624193133,NE
2,0,Forced Air,Y,,5,2,1971.0,,1971,,2016-06-07 00:00:00,540000.0,U,3,,1,,,,,,,,,0,17,446,2018-07-22 18:01:38,Condominium,2421.0,1666.0,,,,20016.0,,38.93466835,-77.08468826,Wesley Heights,054 B Wesley Heights,801.0,,Ward 3,1601.0,-77.08469057606386,38.93467580564351,NW
1,0,Forced Air,Y,,2,0,1959.0,2007.0,1959,,2017-05-01 00:00:00,293000.0,Q,4,,1,,,,,,,,,0,17,205,2018-07-22 18:01:38,Condominium,2838.0,561.0,,,,20024.0,,38.88082098,-77.01427073,Southwest Waterfront,,10500.0,,Ward 6,540.0,-77.0142730131491,38.8808284329871,SW
1,0,Forced Air,N,1.0,5,2,1940.0,,1943,2.0,1996-06-12 00:00:00,84900.0,Q,1,1008.0,1,2 Story,Row End,Average,Average,Common Brick,Built Up,Hardwood,1.0,0,11,3045,2018-07-22 18:01:43,Residential,,,441 OAKWOOD STREET SE,WASHINGTON,DC,20032.0,18S UJ 26226 01649,38.84651301,-77.00241093,Congress Heights,016 B Congress Heights,10400.0,010400 2043,Ward 8,5994.0,-77.00285578545233,38.84654598051153,SE
3,3,Warm Cool,Y,1.0,14,4,2007.0,,2011,2.5,2003-12-31 00:00:00,,U,1,3246.0,1,2.5 Story Fin,Single,Good Quality,Good,Common Brick,Comp Shingle,Hardwood/Carp,1.0,2,12,5542,2018-07-22 18:01:43,Residential,,,3342 HIGHWOOD DRIVE SE,WASHINGTON,DC,20020.0,18S UJ 30145 04352,38.87162365,-76.95795035,Hillcrest,028 B Hillcrest,9901.0,009901 2015,Ward 7,5536.0,-76.95681374407907,38.871519666240225,SE
1,1,Hot Water Rad,N,1.0,6,3,1860.0,1994.0,1964,2.0,1999-01-28 00:00:00,,U,1,1524.0,1,2 Story,Semi-Detached,Average,Good,Wood Siding,Metal- Sms,Lt Concrete,1.0,0,13,2898,2018-07-22 18:01:43,Residential,,,502 A STREET SE,WASHINGTON,DC,20003.0,18S UJ 26605 06343,38.888862100000004,-76.99922865,Capitol Hill,009 B Capitol Hill,6600.0,006600 1002,Ward 6,841.0,-76.99893319434565,38.889151061019376,SE
2,0,Forced Air,Y,1.0,6,3,1946.0,2009.0,1966,2.0,2013-04-11 00:00:00,,U,1,1152.0,1,2 Story,Row End,Average,Good,Common Brick,Comp Shingle,Hardwood/Carp,1.0,0,11,4409,2018-07-22 18:01:43,Residential,,,1732 GIRARD STREET NE,WASHINGTON,DC,20018.0,18S UJ 28435 10518,38.92682313,-76.97918471,Woodridge,056 C Woodridge,9102.0,009102 1000,Ward 5,4133.0,-76.97950921408778,38.92683027740715,NE
2,0,Hot Water Rad,N,2.0,6,2,1890.0,,1960,2.0,2013-01-09 00:00:00,,U,1,1784.0,1,2 Story,Row Inside,Good Quality,Average,Common Brick,Metal- Sms,Hardwood,2.0,0,11,1900,2018-07-22 18:01:43,Residential,,,315 E STREET NE,WASHINGTON,DC,20002.0,18S UJ 26434 07133,38.89593871,-77.00140290000002,Old City 1,039 K Old City 1,8301.0,008301 2005,Ward 6,780.0,-77.0012462690547,38.89551254782725,NE
1,1,Warm Cool,Y,1.0,6,3,1953.0,,1953,2.0,2005-03-23 00:00:00,,U,1,1080.0,1,2 Story,Semi-Detached,Average,Average,Common Brick,Comp Shingle,Carpet,1.0,0,13,2863,2018-07-22 18:01:43,Residential,,,4914 SARGENT ROAD NE,WASHINGTON,DC,20017.0,18S UJ 27570 12949,38.94854777,-76.98977803,Riggs Park,,9509.0,009509 1005,Ward 5,3912.0,-76.9900351362149,38.94920597234778,NE
5,3,Hot Water Rad,N,1.0,21,9,1925.0,,1991,3.75,2014-04-15 00:00:00,,U,2,13078.0,1,4 Story,Single,Exceptional-B,Very Good,Common Brick,Slate,Hardwood,1.0,9,12,9750,2018-07-22 18:01:43,Residential,,,2230 S STREET NW,WASHINGTON,DC,20008.0,18S UJ 22268 09219,38.91389655,-77.04994675,Kalorama,029 A Kalorama,4100.0,004100 3014,Ward 2,2517.0,-77.05140215828274,38.91388972715364,NW
2,0,Hot Water Rad,Y,1.0,6,3,1938.0,,1969,2.0,2004-06-24 00:00:00,670000.0,Q,1,1340.0,1,2 Story,Row End,Good Quality,Good,Common Brick,Metal- Sms,Hardwood,1.0,1,11,2806,2018-07-22 18:01:43,Residential,,,3629 JENIFER STREET NW,WASHINGTON,DC,20015.0,18S UJ 20718 14288,38.959223200000004,-77.06915049,Chevy Chase,011 B Chevy Chase,1402.0,001402 3003,Ward 3,1990.0,-77.06926879755864,38.95985980845561,NW
2,1,Hot Water Rad,Y,1.0,8,4,1936.0,2002.0,1982,1.5,2003-07-08 00:00:00,706500.0,Q,1,1645.0,1,1.5 Story Fin,Single,Good Quality,Good,Common Brick,Slate,Hardwood,1.0,1,12,4690,2018-07-22 18:01:43,Residential,,,4533 RIVER ROAD NW,WASHINGTON,DC,20016.0,18S UJ 18910 13944,38.95575873,-77.08991238,American University,001 A American University,1001.0,001001 1012,Ward 3,1574.0,-77.0892202907938,38.955595672356175,NW
2,2,Warm Cool,Y,1.0,8,3,1942.0,,1960,2.5,2008-06-26 00:00:00,955000.0,Q,1,2270.0,1,2.5 Story Fin,Single,Good Quality,Good,Common Brick,Slate,Hardwood,1.0,1,12,7326,2018-07-22 18:01:43,Residential,,,6220 33RD STREET NW,WASHINGTON,DC,20015.0,18S UJ 20965 15677,38.97178863,-77.06665808,Chevy Chase,011 C Chevy Chase,1500.0,001500 5003,Ward 4,2007.0,-77.06911420054598,38.97176939096799,NW
4,3,Warm Cool,Y,1.0,9,4,2013.0,,2017,3.0,2013-07-12 00:00:00,3940000.0,Q,1,3435.0,1,3 Story,Row Inside,Exceptional-B,Excellent,Common Brick,Built Up,Hardwood,1.0,5,11,2050,2018-07-22 18:01:43,Residential,,,3319 PROSPECT STREET NW,WASHINGTON,DC,20007.0,18S UJ 20802 08386,38.90610711,-77.06643863,Georgetown,025 E Georgetown,202.0,000202 3005,Ward 2,1220.0,-77.06724587222823,38.90635665770893,NW
2,1,Forced Air,Y,,5,2,1907.0,2003.0,1919,,2015-03-30 00:00:00,520000.0,U,4,,1,,,,,,,,,2,16,546,2018-07-22 18:01:38,Condominium,2566.0,1079.0,,,,20001.0,,38.906602685,-77.014148625,Old City 2,040 A Old City 2,4600.0,,Ward 6,555.0,-77.01415090986201,38.90661014009381,NW
4,1,Forced Air,Y,1.0,6,3,2017.0,,2018,,2017-09-01 00:00:00,1298000.0,Q,2,1600.0,1,2.5 Story Fin,Row Inside,Very Good,Excellent,Common Brick,Comp Shingle,Hardwood,1.0,0,11,1520,2018-07-22 18:01:43,Residential,,,413 GUETLER WAY SE,WASHINGTON,DC,20003.0,18S UJ 27580 05720,38.8834398,-76.98783747,Old City 1,039 B Old City 1,6900.0,006900 2003,Ward 6,1042.0,-76.98735685617004,38.88340363306828,SE
2,0,Forced Air,Y,1.0,8,3,1948.0,2015.0,1968,2.0,2016-01-04 00:00:00,315000.0,Q,3,1020.0,1,2 Story,Semi-Detached,Average,Good,Common Brick,Built Up,Hardwood/Carp,1.0,0,13,2911,2018-07-22 18:01:43,Residential,,,539 HILLTOP TERRACE SE,WASHINGTON,DC,20019.0,18S UJ 31543 05483,38.88207832,-76.94211926,Fort Dupont Park,022 C Fort Dupont Park,9907.0,009907 2001,Ward 7,5394.0,-76.94097199248958,38.882250623258116,SE
1,0,Hot Water Rad,N,,2,0,1964.0,1981.0,1964,,2008-05-07 00:00:00,200000.0,Q,1,,1,,,,,,,,,0,17,152,2018-07-22 18:01:38,Condominium,1077.0,466.0,,,,20007.0,,38.92682074,-77.07428185,Observatory Circle,,701.0,,Ward 3,1930.0,-77.0742841615648,38.92682820151908,NW
1,1,Warm Cool,Y,1.0,7,3,1953.0,,1953,2.0,1998-04-07 00:00:00,,U,1,1088.0,1,2 Story,Semi-Detached,Average,Average,Common Brick,Built Up,Hardwood,1.0,0,13,2587,2018-07-22 18:01:43,Residential,,,907 JEFFERSON STREET NE,WASHINGTON,DC,20011.0,18S UJ 27308 13802,38.95617351,-76.99300472,Riggs Park,,9508.0,009508 2006,Ward 5,3749.0,-76.99478637430147,38.955925387971384,NE
1,0,Ht Pump,Y,,2,0,1985.0,2005.0,1985,,2007-04-10 00:00:00,137427545.0,U,1,,1,,,,,,,,,0,16,592,2018-07-22 18:01:38,Condominium,1657.0,433.0,,,,20016.0,,38.937773395,-77.07536841999998,Cleveland Park,,1002.0,,Ward 3,1821.0,-77.0753707272469,38.93778085067983,NW
1,0,Forced Air,Y,,3,1,2007.0,,2007,,2016-09-14 00:00:00,467000.0,U,4,,1,,,,,,,,,0,17,102,2018-07-22 18:01:38,Condominium,2875.0,627.0,,,,20001.0,,38.90314058,-77.01777614,Old City 2,040 B Old City 2,4701.0,,Ward 6,515.0,-77.01777842507026,38.90314803223472,NW
4,0,Hot Water Rad,N,4.0,12,4,1937.0,,1943,2.0,,,U,1,2800.0,1,2 Story,Multi,Average,Average,Common Brick,Comp Shingle,Hardwood,4.0,1,23,3194,2018-07-22 18:01:43,Residential,,,916 QUINCY STREET NE,WASHINGTON,DC,20017.0,18S UJ 27205 11797,38.93810006,-76.99369232,Brookland,007 C Brookland,9504.0,009504 1014,Ward 5,3818.0,-76.99380394437459,38.938555069853294,NE
2,0,Warm Cool,Y,1.0,7,4,1978.0,,1980,2.0,,,U,1,1408.0,1,2 Story,Semi-Detached,Above Average,Average,Vinyl Siding,Comp Shingle,Carpet,1.0,0,13,4504,2018-07-22 18:01:43,Residential,,,4506 6TH PLACE NE,WASHINGTON,DC,20017.0,18S UJ 26833 12506,38.94440908,-76.99815826,Brookland,007 C Brookland,9504.0,009504 2008,Ward 5,3811.0,-76.9975114803148,38.944223125083695,NE
2,0,Forced Air,Y,,3,2,2002.0,,2002,,2010-12-28 00:00:00,520000.0,Q,1,,1,,,,,,,,,0,17,0,2018-07-22 18:01:38,Condominium,1493.0,866.0,,,,20009.0,,38.92140084,-77.0416785,Mt. Pleasant,036 C Mt. Pleasant,3800.0,,Ward 1,2560.0,-77.04168080059328,38.92140829829151,NW
1,0,Warm Cool,Y,1.0,6,3,1925.0,,1954,2.0,2014-01-07 00:00:00,,U,1,1640.0,1,2 Story,Single,Very Good,Average,Stucco,Slate,Hardwood,1.0,1,12,3713,2018-07-22 18:01:43,Residential,,,3842 LEGATION STREET NW,WASHINGTON,DC,20015.0,18S UJ 20075 14600,38.96190767,-77.07664958,Chevy Chase,011 A Chevy Chase,1100.0,001100 1013,Ward 3,1857.0,-77.07566032136782,38.96128907166688,NW
2,0,Hot Water Rad,N,1.0,7,3,1935.0,,1964,2.0,2008-04-23 00:00:00,361000.0,Q,1,1180.0,1,2 Story,Semi-Detached,Average,Average,Common Brick,Metal- Sms,Hardwood,1.0,0,13,1576,2018-07-22 18:01:43,Residential,,,533 QUINTANA PLACE NW,WASHINGTON,DC,20011.0,18S UJ 24903 14781,38.96451222,-77.02100365,Brightwood,006 C Brightwood,1901.0,001901 2000,Ward 4,3200.0,-77.02115149012272,38.96450883438264,NW
1,0,Warm Cool,Y,2.0,6,3,1969.0,1994.0,1980,2.0,1993-12-01 00:00:00,390000.0,Q,1,2826.0,1,2 Story,Row End,Good Quality,Average,Common Brick,Metal- Sms,Hardwood,1.0,0,15,1970,2018-07-22 18:01:43,Residential,,,1101 EAST CAPITOL STREET SE,WASHINGTON,DC,20003.0,18S UJ 27290 06352,38.88907222,-76.99133996,Old City 1,039 M Old City 1,6700.0,006700 2003,Ward 6,989.0,-76.99103973419922,38.888446578906425,SE
2,0,Forced Air,Y,,4,2,1956.0,,1956,,,,U,1,,1,,,,,,,,,0,17,263,2018-07-22 18:01:38,Condominium,3013.0,1094.0,,,,20008.0,,38.95125084,-77.06908825,Wakefield,,1200.0,,Ward 3,1978.0,-77.0690905557542,38.95125829730305,NW
1,0,Hot Water Rad,N,1.0,5,2,1926.0,1962.0,1970,2.0,1999-09-03 00:00:00,,U,1,1463.0,1,2 Story,Row Inside,Excellent,Average,Common Brick,Built Up,Hardwood,1.0,1,11,2550,2018-07-22 18:01:43,Residential,,,3318 DENT PLACE NW,WASHINGTON,DC,20007.0,18S UJ 20803 08996,38.91158949,-77.06677604,Georgetown,025 D Georgetown,202.0,000202 1008,Ward 2,1278.0,-77.06683527456295,38.91127599676651,NW
1,0,Ht Pump,Y,,3,1,1955.0,2005.0,1955,,2017-01-03 00:00:00,45000.0,U,3,,1,,,,,,,,,0,16,589,2018-07-22 18:01:38,Condominium,1677.0,476.0,,,,20032.0,,38.842956975,-76.99495752,Congress Heights,016 B Congress Heights,9804.0,,Ward 8,5956.0,-76.99495980697142,38.842964419206815,SE
2,1,Warm Cool,Y,1.0,10,3,1989.0,,1996,2.0,2008-09-04 00:00:00,,U,1,2088.0,1,2 Story,Row Inside,Very Good,Very Good,Brick Veneer,Comp Shingle,Hardwood/Carp,1.0,2,11,1826,2018-07-22 18:01:43,Residential,,,3910 HIGHWOOD COURT NW,WASHINGTON,DC,20007.0,18S UJ 19978 09547,38.91638393,-77.0764315,Burleith,008 B Burleith,300.0,000300 3003,Ward 2,1320.0,-77.07729657267994,38.91595936217581,NW
1,0,Forced Air,Y,,2,0,1962.0,1980.0,1962,,2010-03-03 00:00:00,212000.0,U,1,,1,,,,,,,,,0,17,147,2018-07-22 18:01:38,Condominium,2010.0,499.0,,,,20037.0,,38.9016372,-77.05248123,Foggy Bottom,,5600.0,,Ward 2,28.0,-77.05248353533756,38.90164465416765,NW
1,0,Ht Pump,Y,,3,1,1974.0,1975.0,1974,,2003-07-09 00:00:00,,U,1,,1,,,,,,,,,1,16,405,2018-07-22 18:01:38,Condominium,2176.0,605.0,,,,20009.0,,38.91176266,-77.03782161,Old City 2,040 D Old City 2,5301.0,,Ward 2,179.0,-77.03782390035846,38.91177011315478,NW
1,2,Hot Water Rad,N,1.0,8,3,1930.0,1980.0,1957,2.0,2011-03-08 00:00:00,,U,1,1660.0,1,2 Story,Semi-Detached,Above Average,Average,Common Brick,Metal- Sms,Hardwood,1.0,1,13,4410,2018-07-22 18:01:43,Residential,,,1320 WEBSTER STREET NE,WASHINGTON,DC,20017.0,18S UJ 27776 12488,38.94443246,-76.98728248,Brookland,007 B Brookland,9503.0,009503 1007,Ward 5,3976.0,-76.98727512978485,38.9446928843082,NE
1,0,Forced Air,Y,,4,2,1910.0,1963.0,1910,,2000-05-01 00:00:00,259000.0,Q,1,,1,,,,,,,,,0,16,297,2018-07-22 18:01:38,Condominium,2402.0,858.0,,,,20007.0,,38.91176138,-77.06045955,Georgetown,025 F Georgetown,100.0,,Ward 2,1282.0,-77.0604618591437,38.91176883739783,NW
2,0,Warm Cool,Y,1.0,7,3,1965.0,,1975,1.0,2003-08-05 00:00:00,111500.0,U,1,1334.0,1,1 Story,Single,Above Average,Good,Common Brick,Comp Shingle,Wood Floor,1.0,0,12,5471,2018-07-22 18:01:43,Residential,,,3245 POPE STREET SE,WASHINGTON,DC,20020.0,18S UJ 30087 04483,38.87278445,-76.95864501,Hillcrest,028 B Hillcrest,9901.0,009901 2016,Ward 7,5542.0,-76.95901381986499,38.872018052707965,SE
1,1,Warm Cool,Y,1.0,7,3,1964.0,,1974,2.0,,,U,1,1632.0,1,2 Story,Semi-Detached,Above Average,Good,Common Brick,Comp Shingle,Hardwood,1.0,0,13,3000,2018-07-22 18:01:43,Residential,,,4216 FORT DUPONT STREET SE,WASHINGTON,DC,20020.0,18S UJ 31422 04079,38.86940294,-76.94316087,Fort Dupont Park,022 D Fort Dupont Park,9902.0,009902 1012,Ward 7,5369.0,-76.94397317160333,38.8694110679518,SE
2,0,Forced Air,Y,1.0,6,3,1913.0,2006.0,1954,2.0,2018-04-24 00:00:00,224000.0,U,5,1080.0,1,2 Story,Semi-Detached,Average,Good,Vinyl Siding,Comp Shingle,Hardwood,1.0,0,13,2000,2018-07-22 18:01:43,Residential,,,312 57TH STREET NE,WASHINGTON,DC,20019.0,18S UJ 33526 06661,38.89306104,-76.91955567,Deanwood,018 C Deanwood,7808.0,007808 3007,Ward 7,5248.0,-76.92005242954708,38.89254135199971,NE
1,0,No Data,Y,,3,1,1895.0,,1895,,2018-02-06 00:00:00,,U,3,,1,,,,,,,,,0,17,82,2018-07-22 18:01:38,Condominium,2173.0,552.0,,,,20009.0,,38.91176266,-77.03782161,Old City 2,040 D Old City 2,5301.0,,Ward 2,179.0,-77.03782390035846,38.91177011315478,NW
3,1,Forced Air,Y,1.0,12,7,2006.0,,2010,2.0,2007-02-21 00:00:00,455000.0,Q,1,2129.0,1,2 Story,Single,Above Average,Good,Common Brick,Comp Shingle,Wood Floor,1.0,0,12,5461,2018-07-22 18:01:43,Residential,,,225 DIVISION AVENUE NE,WASHINGTON,DC,20019.0,18S UJ 32861 06678,38.89308688,-76.92722196,Deanwood,018 C Deanwood,7808.0,007808 1012,Ward 7,5239.0,-76.9263111407238,38.893060274978254,NE
2,0,Ht Pump,Y,,6,2,1942.0,1982.0,1942,,2016-09-23 00:00:00,,U,2,,1,,,,,,,,,0,16,1695,2018-07-22 18:01:38,Condominium,1066.0,1273.0,,,,20016.0,,38.93647738,-77.07636626,Cleveland Park,,1002.0,,Ward 3,1820.0,-77.07636855976237,38.93648483919923,NW
3,1,Forced Air,Y,1.0,8,4,1914.0,2010.0,1980,2.0,2015-01-06 00:00:00,770000.0,Q,4,1580.0,1,2 Story,Row Inside,Above Average,Very Good,Common Brick,Metal- Sms,Hardwood,1.0,0,11,1620,2018-07-22 18:01:43,Residential,,,4213 ILLINOIS AVENUE NW,WASHINGTON,DC,20011.0,18S UJ 25058 12338,38.94254362,-77.01858935,Petworth,042 A Petworth,2301.0,002301 1006,Ward 4,3243.0,-77.01787916122562,38.942551084183975,NW
1,0,Wall Furnace,Y,,2,0,1966.0,1980.0,1966,,2012-10-26 00:00:00,,U,1,,1,,,,,,,,,0,17,88,2018-07-22 18:01:38,Condominium,1038.0,420.0,,,,20037.0,,38.90643337,-77.04783872,Central-tri 1,,5500.0,,Ward 2,70.0,-77.04784102000431,38.90644082183445,NW
4,1,Warm Cool,Y,1.0,10,4,1989.0,,2004,2.0,,,U,1,2746.0,1,2 Story,Single,Superior,Average,Common Brick,Comp Shingle,Hardwood,1.0,4,12,5539,2018-07-22 18:01:43,Residential,,,5179 MACOMB STREET NW,WASHINGTON,DC,20016.0,18S UJ 17291 11331,38.93189066,-77.10787997,Kent,030 A Kent,901.0,000901 1010,Ward 3,1446.0,-77.1071153461792,38.93298748187264,NW
2,0,Ht Pump,Y,,4,2,1912.0,2016.0,1919,,2016-05-16 00:00:00,630000.0,Q,2,,1,,,,,,,,,0,16,485,2018-07-22 18:01:38,Condominium,5278.0,930.0,,,,20009.0,,38.926160675,-77.03514326499999,Columbia Heights,015 A Columbia Heights,3700.0,,Ward 1,2669.0,-77.03514555408539,38.92616813210803,NW
1,0,Hot Water Rad,N,1.0,7,3,1914.0,1970.0,1943,2.0,,,U,1,1376.0,1,2 Story,Row End,Average,Average,Common Brick,Metal- Sms,Hardwood,1.0,0,11,1280,2018-07-22 18:01:43,Residential,,,4023 NEW HAMPSHIRE AVENUE NW,WASHINGTON,DC,20011.0,18S UJ 24852 12111,38.94046196,-77.02090855,Petworth,042 A Petworth,2400.0,002400 4001,Ward 4,3231.0,-77.02016787535231,38.94033702672039,NW
2,1,Forced Air,Y,1.0,6,3,1908.0,2013.0,1967,2.0,2013-07-31 00:00:00,958713.0,Q,1,2596.0,1,2 Story,Row End,Above Average,Average,Common Brick,Metal- Sms,Hardwood,1.0,1,11,2500,2018-07-22 18:01:43,Residential,,,1543 E STREET SE,WASHINGTON,DC,20003.0,18S UJ 28050 05620,38.88263554,-76.98240223,Old City 1,039 B Old City 1,6802.0,006802 2004,Ward 6,1076.0,-76.9830110837643,38.882278932465056,SE
2,0,Warm Cool,Y,1.0,8,3,2005.0,,2009,2.0,2004-06-21 00:00:00,,U,1,2100.0,1,2 Story,Row End,Above Average,Good,Brick/Siding,Comp Shingle,Hardwood/Carp,1.0,0,11,1800,2018-07-22 18:01:43,Residential,,,1626 KRAMER STREET NE,WASHINGTON,DC,20002.0,18S UJ 28164 07328,38.89803585,-76.98151321,Old City 1,039 G Old City 1,7901.0,007901 4003,Ward 6,4540.0,-76.98088798355928,38.89770619186945,NE
2,0,Ht Pump,Y,,4,2,2015.0,,2015,,2017-11-22 00:00:00,509000.0,U,2,,1,,,,,,,,,0,16,372,2018-07-22 18:01:38,Condominium,3250.0,932.0,,,,20002.0,,38.92080436,-77.001463,Brookland,007 E Brookland,9203.0,,Ward 5,3558.0,-77.00146527974351,38.9208118201252,NE
1,0,Warm Cool,Y,1.0,7,3,1926.0,,1950,2.25,1996-07-31 00:00:00,355000.0,Q,1,1664.0,1,2.5 Story Fin,Semi-Detached,Good Quality,Good,Common Brick,Metal- Sms,Hardwood,1.0,1,13,3316,2018-07-22 18:01:43,Residential,,,3100 RODMAN STREET NW,WASHINGTON,DC,20008.0,18S UJ 21202 11968,38.93843406,-77.06296195,Cleveland Park,,600.0,000600 1004,Ward 3,2062.0,-77.06362436599883,38.938658203985135,NW
2,1,Forced Air,Y,1.0,7,4,1951.0,,1951,2.0,,,U,1,1184.0,1,2 Story,Semi-Detached,Average,Average,Common Brick,Metal- Sms,Hardwood,1.0,0,13,2896,2018-07-22 18:01:43,Residential,,,331 54TH STREET NE,WASHINGTON,DC,20019.0,18S UJ 33243 06777,38.89405229,-76.92284327,Deanwood,018 C Deanwood,7808.0,007808 1007,Ward 7,5252.0,-76.92279381024355,38.89315861767376,NE
1,0,Hot Water Rad,N,1.0,6,3,1911.0,,1954,2.0,2001-01-01 00:00:00,,U,1,1560.0,1,2 Story,Row Inside,Average,Average,Common Brick,Metal- Sms,Hardwood,1.0,0,11,2226,2018-07-22 18:01:43,Residential,,,3629 NEW HAMPSHIRE AVENUE NW,WASHINGTON,DC,20010.0,18S UJ 24473 11490,38.93479275,-77.02511339,Columbia Heights,015 D Columbia Heights,3100.0,003100 1001,Ward 1,2897.0,-77.02494244186191,38.93468015438402,NW
3,1,Warm Cool,Y,2.0,8,4,1927.0,2018.0,1969,2.0,2016-12-22 00:00:00,,U,5,1854.0,1,2 Story,Semi-Detached,Good Quality,Good,Common Brick,Metal- Sms,Hardwood,2.0,1,13,5083,2018-07-22 18:01:43,Residential,,,4214 38TH STREET NW,WASHINGTON,DC,20016.0,18S UJ 20184 12626,38.94414649,-77.07486949999998,North Cleveland Park,,1200.0,001200 4020,Ward 3,1832.0,-77.07587013506188,38.944383663006455,NW
2,1,Forced Air,Y,1.0,8,4,2003.0,,2007,2.0,2004-06-23 00:00:00,223000.0,Q,1,1208.0,1,2 Story,Single,Average,Good,Common Brick,Comp Shingle,Wood Floor,1.0,0,12,2853,2018-07-22 18:01:43,Residential,,,5213 CLAY STREET NE,WASHINGTON,DC,20019.0,18S UJ 32924 06708,38.89337182,-76.92650203,Deanwood,018 C Deanwood,7808.0,007808 1012,Ward 7,5239.0,-76.9263111407238,38.893060274978254,NE
1,0,Forced Air,Y,,4,2,1921.0,2007.0,1921,,2014-06-11 00:00:00,,U,2,,1,,,,,,,,,0,16,373,2018-07-22 18:01:38,Condominium,1864.0,554.0,,,,20009.0,,38.92708187,-77.02854386,Columbia Heights,015 E Columbia Heights,3000.0,,Ward 1,2853.0,-77.02854615468503,38.92708932927631,NW
1,0,Hot Water Rad,N,1.0,8,4,1927.0,,1954,2.0,,,U,1,1260.0,1,2 Story,Row End,Average,Average,Common Brick,Built Up,Hardwood,1.0,1,11,2504,2018-07-22 18:01:43,Residential,,,420 MARIETTA PLACE NW,WASHINGTON,DC,20011.0,18S UJ 25059 14197,38.95928227,-77.01904761,Brightwood,006 E Brightwood,1902.0,001902 1017,Ward 4,3263.0,-77.01898528569463,38.95946511087222,NW
1,1,Hot Water Rad,N,1.0,5,3,1951.0,,1951,2.0,2009-09-18 00:00:00,255000.0,Q,1,1120.0,1,2 Story,Semi-Detached,Average,Average,Common Brick,Metal- Sms,Hardwood,1.0,0,13,1893,2018-07-22 18:01:43,Residential,,,5131 SOUTH DAKOTA AVENUE NE,WASHINGTON,DC,20017.0,18S UJ 27111 13305,38.95165994,-76.99515442,Riggs Park,,9509.0,009509 1004,Ward 5,3783.0,-76.9945550327903,38.951701762359995,NE
1,0,Forced Air,Y,,3,1,1910.0,2012.0,1919,,2014-04-25 00:00:00,439000.0,Q,3,,1,,,,,,,,,0,16,282,2018-07-22 18:01:38,Condominium,1447.0,747.0,,,,20009.0,,38.91938371,-77.042683915,Kalorama,029 B Kalorama,4002.0,,Ward 1,2553.0,-77.04268620694045,38.91939116800037,NW
2,1,Warm Cool,Y,1.0,8,3,1937.0,1999.0,1961,2.0,,,U,1,1892.0,1,2 Story,Single,Very Good,Good,Common Brick,Slate,Hardwood,1.0,1,12,4929,2018-07-22 18:01:43,Residential,,,3117 TENNYSON STREET NW,WASHINGTON,DC,20015.0,18S UJ 21478 15804,38.97303317,-77.0607773,Chevy Chase,011 D Chevy Chase,1500.0,001500 4009,Ward 4,2349.0,-77.059653390188,38.974327758834725,NW
2,0,Hot Water Rad,N,1.0,8,5,1939.0,1975.0,1943,2.0,,,U,1,1182.0,1,2 Story,Row Inside,Average,Average,Common Brick,Metal- Sms,Hardwood,1.0,0,11,1717,2018-07-22 18:01:43,Residential,,,1613 Q STREET SE,WASHINGTON,DC,20020.0,18S UJ 28091 04278,38.87055705,-76.9815897,Anacostia,002 B Anacostia,7601.0,007601 4002,Ward 8,5597.0,-76.98161409340962,38.8702638309286,SE
2,1,Warm Cool,Y,2.0,11,6,1880.0,,1975,3.0,1996-12-06 00:00:00,435000.0,Q,1,3261.0,1,3 Story,Row Inside,Excellent,Average,Stone,Metal- Sms,Hardwood,2.0,5,24,2000,2018-07-22 18:01:43,Residential,,,1731 Q STREET NW,WASHINGTON,DC,20009.0,18S UJ 23133 08914,38.9113225,-77.03989745,Old City 2,040 D Old City 2,5301.0,005301 4005,Ward 2,155.0,-77.03983275035499,38.91172692632766,NW
1,1,Warm Cool,Y,1.0,7,3,1924.0,2006.0,1954,2.0,,,U,1,1362.0,1,2 Story,Single,Average,Good,Stucco,Clay Tile,Wood Floor,1.0,0,12,4434,2018-07-22 18:01:43,Residential,,,4920 NANNIE HELEN BURROUGHS AVENUE NE,WASHINGTON,DC,20019.0,18S UJ 32587 07302,38.89865417,-76.9305263,Deanwood,018 B Deanwood,7804.0,007804 1004,Ward 7,5179.0,-76.92989862479402,38.89891489546712,NE
2,0,Warm Cool,Y,2.0,4,2,1951.0,,1961,2.0,2005-03-08 00:00:00,,U,1,1184.0,1,2 Story,Multi,Average,Average,Common Brick,Built Up,Hardwood,2.0,0,23,3129,2018-07-22 18:01:43,Residential,,,606 SOUTHERN AVENUE SE,WASHINGTON,DC,20032.0,18S UH 26581 99171,38.82426717,-76.99769427,Congress Heights,016 C Congress Heights,9811.0,009811 2004,Ward 8,6250.0,-76.99726599434395,38.82494626586553,SE
1,1,Forced Air,Y,1.0,6,3,1926.0,2007.0,1964,2.0,2000-09-11 00:00:00,159000.0,Q,1,1560.0,1,2 Story,Row Inside,Above Average,Average,Common Brick,Metal- Sms,Hardwood,1.0,1,11,1190,2018-07-22 18:01:43,Residential,,,1313 F STREET NE,WASHINGTON,DC,20002.0,18S UJ 27620 07240,38.89713835,-76.9877587,Old City 1,039 F Old City 1,8001.0,008001 2002,Ward 6,1029.0,-76.98693120478241,38.89662624193133,NE
1,0,Forced Air,Y,,2,0,1967.0,1979.0,1967,,2008-11-07 00:00:00,,U,1,,1,,,,,,,,,0,17,90,2018-07-22 18:01:38,Condominium,1014.0,475.0,,,,20037.0,,38.9047162,-77.04944216,Central-tri 1,,5500.0,,Ward 2,51.0,-77.04944445595534,38.90472365301228,NW
1,0,Hot Water Rad,N,1.0,6,3,1911.0,,1957,2.0,2016-11-23 00:00:00,,U,2,1240.0,1,2 Story,Row Inside,Above Average,Average,Common Brick,Metal- Sms,Hardwood,1.0,0,11,1968,2018-07-22 18:01:43,Residential,,,603 COLUMBIA ROAD NW,WASHINGTON,DC,20001.0,18S UJ 24812 10782,38.92848188,-77.02102417,Columbia Heights,015 C Columbia Heights,3200.0,003200 4004,Ward 1,3052.0,-77.02199510277427,38.928564837311406,NW
2,0,Forced Air,Y,,4,2,2008.0,,2008,,2009-07-01 00:00:00,475000.0,Q,1,,1,,,,,,,,,1,16,479,2018-07-22 18:01:38,Condominium,1976.0,915.0,,,,20009.0,,38.920906325,-77.03070012,Columbia Heights,015 E Columbia Heights,3600.0,,Ward 1,2868.0,-77.03070241000901,38.92091378226712,NW
2,0,Ht Pump,Y,,4,2,1935.0,1982.0,1935,,2015-05-26 00:00:00,690000.0,Q,4,,1,,,,,,,,,0,16,475,2018-07-22 18:01:38,Condominium,2206.0,886.0,,,,20005.0,,38.91048645,-77.03530351,Old City 2,040 E Old City 2,5201.0,,Ward 2,194.0,-77.03530579679109,38.91049390880296,NW
1,0,Forced Air,Y,,3,1,1960.0,1979.0,1960,,,,U,1,,1,,,,,,,,,0,17,115,2018-07-22 18:01:38,Condominium,2012.0,572.0,,,,20037.0,,38.90038402,-77.05171922,Foggy Bottom,,5600.0,,Ward 2,30.0,-77.05172152850454,38.900391469418565,NW
1,0,Ht Pump,Y,,3,1,1926.0,1979.0,1926,,2006-06-15 00:00:00,300000.0,Q,1,,1,,,,,,,,,0,16,346,2018-07-22 18:01:38,Condominium,1134.0,584.0,,,,20009.0,,38.92093652,-77.04763058500002,Kalorama,029 C Kalorama,4001.0,,Ward 1,2543.0,-77.04763288032656,38.92094397747271,NW
1,0,Ht Pump,Y,,3,1,1965.0,1981.0,1965,,2002-08-01 00:00:00,200500.0,Q,1,,1,,,,,,,,,0,17,215,2018-07-22 18:01:38,Condominium,2095.0,640.0,,,,20009.0,,38.91487365,-77.04042678,Old City 2,040 D Old City 2,4201.0,,Ward 2,152.0,-77.04042907495098,38.914881109044266,NW
1,0,Forced Air,Y,,3,1,2016.0,,2016,,2016-09-14 00:00:00,409900.0,Q,2,,1,,,,,,,,,0,17,226,2018-07-22 18:01:38,Condominium,5388.0,494.0,,,,20024.0,,38.87927087,-77.02462256,Southwest Waterfront,,10200.0,,Ward 6,473.0,-77.02462485100938,38.87927865689815,SW
1,0,Forced Air,Y,1.0,10,5,1900.0,1998.0,1964,3.0,1999-03-02 00:00:00,177945.0,U,1,2568.0,1,3 Story,Semi-Detached,Average,Good,Wood Siding,Metal- Sms,Hardwood,1.0,0,13,2380,2018-07-22 18:01:43,Residential,,,223 8TH STREET SE,WASHINGTON,DC,20003.0,18S UJ 26947 06104,38.88677251,-76.99523582,Capitol Hill,009 B Capitol Hill,6600.0,006600 1018,Ward 6,900.0,-76.99546512289882,38.88696091216006,SE
3,1,Hot Water Rad,Y,2.0,11,5,1900.0,,1963,3.0,,,U,1,3029.0,1,3 Story,Row Inside,Very Good,Good,Common Brick,Metal- Sms,Hardwood,2.0,0,24,1394,2018-07-22 18:01:43,Residential,,,904 EAST CAPITOL STREET NE,WASHINGTON,DC,20003.0,18S UJ 27110 06470,38.89010634,-76.99344563,Capitol Hill,009 C Capitol Hill,8100.0,008100 3006,Ward 6,941.0,-76.99323368878973,38.8904090880536,NE
2,1,Hot Water Rad,Y,2.0,8,5,1915.0,2006.0,1978,3.0,,,U,1,3454.0,1,3 Story,Row Inside,Excellent,Good,Common Brick,Built Up,Hardwood,2.0,3,24,2575,2018-07-22 18:01:43,Residential,,,2333 ASHMEAD PLACE NW,WASHINGTON,DC,20009.0,18S UJ 22504 09847,38.91959322,-77.04739931,Kalorama,029 C Kalorama,4001.0,004001 3008,Ward 1,2540.0,-77.04711328279454,38.9195567005216,NW
1,2,Forced Air,N,1.0,8,4,1947.0,,1960,1.5,,,U,1,1156.0,1,1.5 Story Fin,Single,Above Average,Average,Stone Veneer,Comp Shingle,Hardwood,1.0,1,12,5000,2018-07-22 18:01:43,Residential,,,1231 34TH PLACE SE,WASHINGTON,DC,20019.0,18S UJ 30255 04702,38.87479111,-76.95676035,Hillcrest,028 B Hillcrest,9901.0,009901 2004,Ward 7,5511.0,-76.95619045192731,38.87509571910184,SE
3,1,Ht Pump,Y,1.0,8,3,2017.0,,2017,2.0,2017-12-07 00:00:00,409000.0,Q,2,1476.0,1,2 Story,Row End,Above Average,Very Good,Face Brick,Comp Shingle,Hardwood,1.0,0,11,2182,2018-07-22 18:01:43,Residential,,,3428 10TH PLACE SE,WASHINGTON,DC,20032.0,18S UJ 27135 00888,38.83983553,-76.99175358,Congress Heights,016 B Congress Heights,7304.0,007304 3005,Ward 8,5933.0,-76.99075346890206,38.840328452078936,SE
1,0,Forced Air,Y,,3,1,1959.0,2006.0,1959,,2008-03-26 00:00:00,,Q,1,,1,,,,,,,,,0,17,223,2018-07-22 18:01:38,Condominium,2838.0,581.0,,,,20024.0,,38.88082098,-77.01427073,Southwest Waterfront,,10500.0,,Ward 6,540.0,-77.0142730131491,38.8808284329871,SW
1,0,Hot Water Rad,N,1.0,6,3,1927.0,1970.0,1954,2.0,2002-09-10 00:00:00,245970.0,Q,1,1650.0,1,2 Story,Semi-Detached,Above Average,Average,Common Brick,Built Up,Hardwood,1.0,1,13,2470,2018-07-22 18:01:43,Residential,,,1452 LAWRENCE STREET NE,WASHINGTON,DC,20017.0,18S UJ 27948 11109,38.93204424,-76.98494653,Brookland,007 D Brookland,9301.0,009301 4004,Ward 5,4008.0,-76.98525108586531,38.93228339687877,NE
